{"type":"FeatureCollection","features":[{"type":"Feature","geometry":{"type":"Point","coordinates":[-74.05399999995436,4.640999999820172]},"properties":{"NOMBRE_EST":"COLEGIO SIMON RODRIGUEZ (IED)"}},{"type":"Feature","geometry":{"type":"Point","coordinates":[-74.05910999997273,4.630089999646314]},"properties":{"NOMBRE_EST":"COLEGIO SAN MARTIN DE PORRES (IED)"}},{"type":"Feature","geometry":{"type":"Point","coordinates":[-74.061259999926,4.630650000174223]},"properties":{"NOMBRE_EST":"COLEGIO SAN MARTIN DE PORRES (IED)"}},{"type":"Feature","geometry":{"type":"Point","coordinates":[-74.06143999985105,4.64274999994705]},"properties":{"NOMBRE_EST":"JARDIN INFANTIL CARRUSEL"}},{"type":"Feature","geometry":{"type":"Point","coordinates":[-74.06228000010016,4.632009999738419]},"properties":{"NOMBRE_EST":"COLEGIO UNILATINA"}},{"type":"Feature","geometry":{"type":"Point","coordinates":[-74.06784000038034,4.614639999876945]},"properties":{"NOMBRE_EST":"COLEGIO POLICARPA SALAVARRIETA (IED)"}},{"type":"Feature","geometry":{"type":"Point","coordinates":[-74.06920000031316,4.604919999648468]},"properties":{"NOMBRE_EST":"COLEGIO POLICARPA SALAVARRIETA (IED)"}},{"type":"Feature","geometry":{"type":"Point","coordinates":[-74.06737000002705,4.6204000000360255]},"properties":{"NOMBRE_EST":"COLEGIO EXTERNADO NACIONAL CAMILO TORRES (IED)"}},{"type":"Feature","geometry":{"type":"Point","coordinates":[-74.07114000020412,4.580829999727332]},"properties":{"NOMBRE_EST":"COLEGIO AULAS COLOMBIANAS SAN LUIS (IED)"}},{"type":"Feature","geometry":{"type":"Point","coordinates":[-74.07299999972913,4.580240000125418]},"properties":{"NOMBRE_EST":"COLEGIO AULAS COLOMBIANAS SAN LUIS (IED)"}},{"type":"Feature","geometry":{"type":"Point","coordinates":[-74.07338999971647,4.587740000336975]},"properties":{"NOMBRE_EST":"COLEGIO JORGE SOTO DEL CORRAL (IED)"}},{"type":"Feature","geometry":{"type":"Point","coordinates":[-74.07336999962499,4.584719999818601]},"properties":{"NOMBRE_EST":"COLEGIO JORGE SOTO DEL CORRAL (IED)"}},{"type":"Feature","geometry":{"type":"Point","coordinates":[-74.0703500001837,4.588580000428881]},"properties":{"NOMBRE_EST":"COLEGIO JORGE SOTO DEL CORRAL (IED)"}},{"type":"Feature","geometry":{"type":"Point","coordinates":[-74.08231000009488,4.592200000089492]},"properties":{"NOMBRE_EST":"COLEGIO ANTONIO JOSE URIBE (IED)"}},{"type":"Feature","geometry":{"type":"Point","coordinates":[-74.08462999992743,4.593470000201686]},"properties":{"NOMBRE_EST":"COLEGIO ANTONIO JOSE URIBE (IED)"}},{"type":"Feature","geometry":{"type":"Point","coordinates":[-74.0645699997955,4.617680000267324]},"properties":{"NOMBRE_EST":"COLEGIO MANUEL ELKIN PATARROYO (IED)"}},{"type":"Feature","geometry":{"type":"Point","coordinates":[-74.07919000019616,4.583070000339565]},"properties":{"NOMBRE_EST":"COLEGIO LA GIRALDA (IED)"}},{"type":"Feature","geometry":{"type":"Point","coordinates":[-74.06891999993069,4.617809999716737]},"properties":{"NOMBRE_EST":"COLEGIO DE MARIA AUXILIADORA"}},{"type":"Feature","geometry":{"type":"Point","coordinates":[-74.06554999978671,4.610209999900242]},"properties":{"NOMBRE_EST":"COLEGIO RAMON B JIMENO"}},{"type":"Feature","geometry":{"type":"Point","coordinates":[-74.0711600002956,4.604839999640505]},"properties":{"NOMBRE_EST":"COLEGIO SIGLO XXI"}},{"type":"Feature","geometry":{"type":"Point","coordinates":[-74.08594999967727,4.5928200001729715]},"properties":{"NOMBRE_EST":"INSTITUTO SAN BERNARDO DE LA SALLE"}},{"type":"Feature","geometry":{"type":"Point","coordinates":[-74.06486000022372,4.620550000338619]},"properties":{"NOMBRE_EST":"COLEGIO SAN BARTOLOME LA MERCED"}},{"type":"Feature","geometry":{"type":"Point","coordinates":[-74.07435999966194,4.611399999950327]},"properties":{"NOMBRE_EST":"COLEGIO DE LAS MERCEDES"}},{"type":"Feature","geometry":{"type":"Point","coordinates":[-74.06458999988696,4.588580000428881]},"properties":{"NOMBRE_EST":"LICEO MATER DEI"}},{"type":"Feature","geometry":{"type":"Point","coordinates":[-74.06809999977304,4.587700000265331]},"properties":{"NOMBRE_EST":"COLEGIO LOS PINOS (IED)"}},{"type":"Feature","geometry":{"type":"Point","coordinates":[-74.066709999703,4.587539999956261]},"properties":{"NOMBRE_EST":"COLEGIO LOS PINOS (IED)"}},{"type":"Feature","geometry":{"type":"Point","coordinates":[-74.06658000000664,4.59138000016243]},"properties":{"NOMBRE_EST":"COLEGIO LOS PINOS (IED)"}},{"type":"Feature","geometry":{"type":"Point","coordinates":[-74.07843000031296,4.589530000130651]},"properties":{"NOMBRE_EST":"COLEGIO DE SALERNO"}},{"type":"Feature","geometry":{"type":"Point","coordinates":[-74.06853999998908,4.587069999960331]},"properties":{"NOMBRE_EST":"CENTRO EDUCATIVO DE LA A.C.F. JULIA RONCANCIO"}},{"type":"Feature","geometry":{"type":"Point","coordinates":[-74.0689500000679,4.624440000023172]},"properties":{"NOMBRE_EST":"CENTRO DE CAPACITACION BOLIVAR - CENCABO"}},{"type":"Feature","geometry":{"type":"Point","coordinates":[-74.07041999960559,4.6055900002574575]},"properties":{"NOMBRE_EST":"COLEGIO CORPORACION IBEROAMERICANA"}},{"type":"Feature","geometry":{"type":"Point","coordinates":[-74.06629999962416,4.622970000355325]},"properties":{"NOMBRE_EST":"COLEGIO UNIVERSITARIA DE COLOMBIA"}},{"type":"Feature","geometry":{"type":"Point","coordinates":[-74.06428000026558,4.590179999575072]},"properties":{"NOMBRE_EST":"COLEGIO BENPOSTA NACION DE MUCHACHOS"}},{"type":"Feature","geometry":{"type":"Point","coordinates":[-74.08537999976487,4.576689999958168]},"properties":{"NOMBRE_EST":"COLEGIO AVE MARIA"}},{"type":"Feature","geometry":{"type":"Point","coordinates":[-74.08027999979222,4.576920000076299]},"properties":{"NOMBRE_EST":"COLEGIO REPUBLICA DEL ECUADOR (IED)"}},{"type":"Feature","geometry":{"type":"Point","coordinates":[-74.08406000001503,4.577110000351737]},"properties":{"NOMBRE_EST":"COLEGIO TECNICO JOSE FELIX RESTREPO (IED)"}},{"type":"Feature","geometry":{"type":"Point","coordinates":[-74.09087999977059,4.5804800003409145]},"properties":{"NOMBRE_EST":"COLEGIO TECNICO ALDEMAR ROJAS PLAZAS (IED)"}},{"type":"Feature","geometry":{"type":"Point","coordinates":[-74.08760000003831,4.5792899997132785]},"properties":{"NOMBRE_EST":"JARDIN INFANTIL Y GUARDERIA BETANIA"}},{"type":"Feature","geometry":{"type":"Point","coordinates":[-74.08830999969278,4.5796800002047915]},"properties":{"NOMBRE_EST":"COLEGIO ISAAC NEWTON"}},{"type":"Feature","geometry":{"type":"Point","coordinates":[-74.0892600004451,4.581939999692676]},"properties":{"NOMBRE_EST":"COLEGIO DE NUESTRA SEÑORA DEL PILAR SUR"}},{"type":"Feature","geometry":{"type":"Point","coordinates":[-74.08612999960232,4.577749999965755]},"properties":{"NOMBRE_EST":"COLEGIO SAN JUAN BOSCO"}},{"type":"Feature","geometry":{"type":"Point","coordinates":[-74.08026999974649,4.580699999796141]},"properties":{"NOMBRE_EST":"COLEGIO SAN JUAN VIANETH"}},{"type":"Feature","geometry":{"type":"Point","coordinates":[-74.08566000014736,4.581659999557375]},"properties":{"NOMBRE_EST":"COLEGIO NUEVA ALIANZA INTEGRAL"}},{"type":"Feature","geometry":{"type":"Point","coordinates":[-74.08664000013857,4.58440999990867]},"properties":{"NOMBRE_EST":"COLEGIO CARLOS CASTRO SAAVEDRA"}},{"type":"Feature","geometry":{"type":"Point","coordinates":[-74.08860000012102,4.579839999587264]},"properties":{"NOMBRE_EST":"COLEGIO EUGENIA RAVASCO"}},{"type":"Feature","geometry":{"type":"Point","coordinates":[-74.0839100002272,4.578810000194087]},"properties":{"NOMBRE_EST":"COLEGIO URAPANES"}},{"type":"Feature","geometry":{"type":"Point","coordinates":[-74.091449999683,4.577360000213111]},"properties":{"NOMBRE_EST":"GIMNASIO SOSIEGO"}},{"type":"Feature","geometry":{"type":"Point","coordinates":[-74.08630000037996,4.581380000207887]},"properties":{"NOMBRE_EST":"JARDIN INFANTIL PEQUEÑAS MARAVILLAS"}},{"type":"Feature","geometry":{"type":"Point","coordinates":[-74.08504000000626,4.578470000190529]},"properties":{"NOMBRE_EST":"INSTITUTO DE EDUCACION FORMAL DE ADULTOS EL PENSAMIENTO DE PITAGORAS"}},{"type":"Feature","geometry":{"type":"Point","coordinates":[-74.1313199997016,4.5786100000008725]},"properties":{"NOMBRE_EST":"COLEGIO CENTRO INTEGRAL JOSE MARIA CORDOBA (IED)"}},{"type":"Feature","geometry":{"type":"Point","coordinates":[-74.13257000002957,4.578260000423685]},"properties":{"NOMBRE_EST":"COLEGIO CENTRO INTEGRAL JOSE MARIA CORDOBA (IED)"}},{"type":"Feature","geometry":{"type":"Point","coordinates":[-74.14358000008676,4.592029999712497]},"properties":{"NOMBRE_EST":"COLEGIO VENECIA (IED)"}},{"type":"Feature","geometry":{"type":"Point","coordinates":[-74.14785999990175,4.586510000018573]},"properties":{"NOMBRE_EST":"COLEGIO VENECIA (IED)"}},{"type":"Feature","geometry":{"type":"Point","coordinates":[-74.13796999957788,4.585470000113185]},"properties":{"NOMBRE_EST":"COLEGIO INSTITUTO TECNICO INDUSTRIAL PILOTO (IED)"}},{"type":"Feature","geometry":{"type":"Point","coordinates":[-74.1385000002056,4.584770000340308]},"properties":{"NOMBRE_EST":"COLEGIO INSTITUTO TECNICO INDUSTRIAL PILOTO (IED)"}},{"type":"Feature","geometry":{"type":"Point","coordinates":[-74.1422100001082,4.586840000421124]},"properties":{"NOMBRE_EST":"COLEGIO INSTITUTO TECNICO INDUSTRIAL PILOTO (IED)"}},{"type":"Feature","geometry":{"type":"Point","coordinates":[-74.13771000018518,4.587649999948732]},"properties":{"NOMBRE_EST":"COLEGIO INSTITUTO TECNICO INDUSTRIAL PILOTO (IED)"}},{"type":"Feature","geometry":{"type":"Point","coordinates":[-74.12892000040142,4.580019999633229]},"properties":{"NOMBRE_EST":"COLEGIO RAFAEL URIBE URIBE (IED)"}},{"type":"Feature","geometry":{"type":"Point","coordinates":[-74.13208999963054,4.583289999893262]},"properties":{"NOMBRE_EST":"COLEGIO RAFAEL URIBE URIBE (IED)"}},{"type":"Feature","geometry":{"type":"Point","coordinates":[-74.13317000007919,4.579410000438207]},"properties":{"NOMBRE_EST":"COLEGIO MARCO FIDEL SUAREZ (IED)"}},{"type":"Feature","geometry":{"type":"Point","coordinates":[-74.13840999979392,4.577489999855787]},"properties":{"NOMBRE_EST":"COLEGIO CIUDAD DE BOGOTA (IED)"}},{"type":"Feature","geometry":{"type":"Point","coordinates":[-74.14025000012576,4.5774599995959315]},"properties":{"NOMBRE_EST":"COLEGIO CIUDAD DE BOGOTA (IED)"}},{"type":"Feature","geometry":{"type":"Point","coordinates":[-74.1320300002544,4.583030000006441]},"properties":{"NOMBRE_EST":"COLEGIO INEM SANTIAGO PEREZ (IED)"}},{"type":"Feature","geometry":{"type":"Point","coordinates":[-74.15247000032794,4.589429999750281]},"properties":{"NOMBRE_EST":"COLEGIO ISLA DEL SOL (IED)"}},{"type":"Feature","geometry":{"type":"Point","coordinates":[-74.13457000019498,4.581829999716579]},"properties":{"NOMBRE_EST":"COLEGIO DIEGO COLON"}},{"type":"Feature","geometry":{"type":"Point","coordinates":[-74.14162000010431,4.589960000352877]},"properties":{"NOMBRE_EST":"GIMNASIO PEDAGOGICO NUESTRA SEÑORA DE FATIMA"}},{"type":"Feature","geometry":{"type":"Point","coordinates":[-74.13456000014924,4.5829399999202485]},"properties":{"NOMBRE_EST":"FUNDACION INSTITUTO TECNOLOGICO DEL SUR"}},{"type":"Feature","geometry":{"type":"Point","coordinates":[-74.13684999984457,4.591259999657253]},"properties":{"NOMBRE_EST":"COLEGIO NUESTRA SEÑORA DE FATIMA POLINAL"}},{"type":"Feature","geometry":{"type":"Point","coordinates":[-74.14062000002161,4.592880000296868]},"properties":{"NOMBRE_EST":"COLEGIO COOPERATIVO VENECIA"}},{"type":"Feature","geometry":{"type":"Point","coordinates":[-74.1434000001617,4.5779500003993565]},"properties":{"NOMBRE_EST":"LICEO CAMPESTRE CAFAM"}},{"type":"Feature","geometry":{"type":"Point","coordinates":[-74.14836000039226,4.58788000012246]},"properties":{"NOMBRE_EST":"COLEGIO COOPERATIVO NUEVO MUZU"}},{"type":"Feature","geometry":{"type":"Point","coordinates":[-74.13952000037979,4.586919999763142]},"properties":{"NOMBRE_EST":"GIMNASIO COMERCIAL LOS ANDES"}},{"type":"Feature","geometry":{"type":"Point","coordinates":[-74.13697000039348,4.584210000386412]},"properties":{"NOMBRE_EST":"JARDIN INFANTIL SOLDADITOS"}},{"type":"Feature","geometry":{"type":"Point","coordinates":[-74.1353600002154,4.585900000094084]},"properties":{"NOMBRE_EST":"COLEGIO SAN JOSE DE CAFASSO"}},{"type":"Feature","geometry":{"type":"Point","coordinates":[-74.13551000000322,4.57916000039764]},"properties":{"NOMBRE_EST":"COLEGIO PSICOPEDAGOGICO PROCESOS CREATIVOS"}},{"type":"Feature","geometry":{"type":"Point","coordinates":[-74.14187000034957,4.588789999849706]},"properties":{"NOMBRE_EST":"LICEO SANTA BERNARDITA"}},{"type":"Feature","geometry":{"type":"Point","coordinates":[-74.14723999976063,4.588570000199091]},"properties":{"NOMBRE_EST":"CENTRO EDUCATIVO EL ELYON"}},{"type":"Feature","geometry":{"type":"Point","coordinates":[-74.13619999956622,4.585749999651178]},"properties":{"NOMBRE_EST":"COLEGIO PSICOPEDAGOGICO ARNOLD GESELL"}},{"type":"Feature","geometry":{"type":"Point","coordinates":[-74.13625999984068,4.5866300004268075]},"properties":{"NOMBRE_EST":"COLEGIO PASTORCITOS DE FATIMA"}},{"type":"Feature","geometry":{"type":"Point","coordinates":[-74.14504999962443,4.589679999779461]},"properties":{"NOMBRE_EST":"LICEO INFANTIL MI NUEVO MUNDO ENCANTADO"}},{"type":"Feature","geometry":{"type":"Point","coordinates":[-74.14613000007309,4.5923799997070995]},"properties":{"NOMBRE_EST":"JARDIN INFANTIL MIS PEQUEÑOS TIMPANITOS"}},{"type":"Feature","geometry":{"type":"Point","coordinates":[-74.13936999969364,4.5782500000494855]},"properties":{"NOMBRE_EST":"INSTITUTO BILINGÜE DEL SUR"}},{"type":"Feature","geometry":{"type":"Point","coordinates":[-74.13932100018816,4.595007000397883]},"properties":{"NOMBRE_EST":"COLEGIO ITEC"}},{"type":"Feature","geometry":{"type":"Point","coordinates":[-74.13593000012779,4.594160000245188]},"properties":{"NOMBRE_EST":"COLEGIO INCADE"}},{"type":"Feature","geometry":{"type":"Point","coordinates":[-74.13696000034773,4.5942999996664105]},"properties":{"NOMBRE_EST":"COLEGIO BRITANICO"}},{"type":"Feature","geometry":{"type":"Point","coordinates":[-74.14227000038265,4.583450000258755]},"properties":{"NOMBRE_EST":"JARDIN INFANTIL CONSTRUYENDO CON GEPETTO"}},{"type":"Feature","geometry":{"type":"Point","coordinates":[-74.14505999967017,4.592189999910425]},"properties":{"NOMBRE_EST":"CENTRO EDUCATIVO SURAMERICANO"}},{"type":"Feature","geometry":{"type":"Point","coordinates":[-74.13703999981536,4.59453999963362]},"properties":{"NOMBRE_EST":"COLEGIO TECNISISTEMAS"}},{"type":"Feature","geometry":{"type":"Point","coordinates":[-74.14062000002161,4.592880000296868]},"properties":{"NOMBRE_EST":"CENTRO EDUCATIVO INTEGRAL LATINOAMERICANO - CEIL"}},{"type":"Feature","geometry":{"type":"Point","coordinates":[-74.13964000003038,4.594599999612802]},"properties":{"NOMBRE_EST":"POLITECNICA COLOMBIANA"}},{"type":"Feature","geometry":{"type":"Point","coordinates":[-74.13882999991849,4.585559999880687]},"properties":{"NOMBRE_EST":"COLEGIO DE LA PRESENTACION DE FATIMA"}},{"type":"Feature","geometry":{"type":"Point","coordinates":[-74.13596000026503,4.616210000014052]},"properties":{"NOMBRE_EST":"COLEGIO CARLOS ARANGO VELEZ (IED)"}},{"type":"Feature","geometry":{"type":"Point","coordinates":[-74.13430999990398,4.605760000084408]},"properties":{"NOMBRE_EST":"COLEGIO CARLOS ARANGO VELEZ (IED)"}},{"type":"Feature","geometry":{"type":"Point","coordinates":[-74.1244199995801,4.633799999918328]},"properties":{"NOMBRE_EST":"COLEGIO NACIONAL NICOLAS ESGUERRA (IED)"}},{"type":"Feature","geometry":{"type":"Point","coordinates":[-74.14640000040981,4.599559999824545]},"properties":{"NOMBRE_EST":"COLEGIO CARLOS ARTURO TORRES (IED)"}},{"type":"Feature","geometry":{"type":"Point","coordinates":[-74.14634000013535,4.599480000109537]},"properties":{"NOMBRE_EST":"COLEGIO CARLOS ARTURO TORRES (IED)"}},{"type":"Feature","geometry":{"type":"Point","coordinates":[-74.1482299997976,4.623369999939618]},"properties":{"NOMBRE_EST":"COLEGIO LA AMISTAD (IED)"}},{"type":"Feature","geometry":{"type":"Point","coordinates":[-74.12738999969098,4.632070000132969]},"properties":{"NOMBRE_EST":"COLEGIO MARSELLA (IED)"}},{"type":"Feature","geometry":{"type":"Point","coordinates":[-74.15051000034549,4.616839999600157]},"properties":{"NOMBRE_EST":"COLEGIO LAS AMERICAS (IED)"}},{"type":"Feature","geometry":{"type":"Point","coordinates":[-74.14161000005858,4.617890000054841]},"properties":{"NOMBRE_EST":"COLEGIO O.E.A. (IED)"}},{"type":"Feature","geometry":{"type":"Point","coordinates":[-74.14090999955152,4.60963000037236]},"properties":{"NOMBRE_EST":"COLEGIO O.E.A. (IED)"}},{"type":"Feature","geometry":{"type":"Point","coordinates":[-74.15149000033671,4.6349400000764565]},"properties":{"NOMBRE_EST":"COLEGIO ISABEL II (IED)"}},{"type":"Feature","geometry":{"type":"Point","coordinates":[-74.13613000014435,4.6049599996490835]},"properties":{"NOMBRE_EST":"COLEGIO ALQUERIA DE LA FRAGUA (IED)"}},{"type":"Feature","geometry":{"type":"Point","coordinates":[-74.14855000036304,4.603769999564458]},"properties":{"NOMBRE_EST":"COLEGIO LA CHUCUA (IED)"}},{"type":"Feature","geometry":{"type":"Point","coordinates":[-74.14077999985517,4.620249999701729]},"properties":{"NOMBRE_EST":"COLEGIO KENNEDY (IED)"}},{"type":"Feature","geometry":{"type":"Point","coordinates":[-74.13540000039838,4.615349999690445]},"properties":{"NOMBRE_EST":"COLEGIO KENNEDY (IED)"}},{"type":"Feature","geometry":{"type":"Point","coordinates":[-74.14541000037286,4.619819999880773]},"properties":{"NOMBRE_EST":"COLEGIO KENNEDY (IED)"}},{"type":"Feature","geometry":{"type":"Point","coordinates":[-74.14655000019764,4.62190999960383]},"properties":{"NOMBRE_EST":"COLEGIO KENNEDY (IED)"}},{"type":"Feature","geometry":{"type":"Point","coordinates":[-74.14752000014312,4.618849999826787]},"properties":{"NOMBRE_EST":"COLEGIO FERNANDO SOTO APARICIO (IED)"}},{"type":"Feature","geometry":{"type":"Point","coordinates":[-74.15270999962912,4.626510000157128]},"properties":{"NOMBRE_EST":"COLEGIO INEM FRANCISCO DE PAULA SANTANDER (IED)"}},{"type":"Feature","geometry":{"type":"Point","coordinates":[-74.15169000035327,4.621880000319731]},"properties":{"NOMBRE_EST":"COLEGIO JOHN F. KENNEDY (IED)"}},{"type":"Feature","geometry":{"type":"Point","coordinates":[-74.15107000021214,4.624340000075471]},"properties":{"NOMBRE_EST":"COLEGIO PROSPERO PINZON (IED)"}},{"type":"Feature","geometry":{"type":"Point","coordinates":[-74.12730000017761,4.62069999971403]},"properties":{"NOMBRE_EST":"COLEGIO LA FLORESTA SUR (IED)"}},{"type":"Feature","geometry":{"type":"Point","coordinates":[-74.1277000002107,4.620440000060127]},"properties":{"NOMBRE_EST":"COLEGIO LA FLORESTA SUR (IED)"}},{"type":"Feature","geometry":{"type":"Point","coordinates":[-74.1440400003943,4.63794000023414]},"properties":{"NOMBRE_EST":"COLEGIO SAN JOSE DE CASTILLA (IED)"}},{"type":"Feature","geometry":{"type":"Point","coordinates":[-74.14189000044105,4.640449999830619]},"properties":{"NOMBRE_EST":"COLEGIO CASTILLA (IED)"}},{"type":"Feature","geometry":{"type":"Point","coordinates":[-74.1436400003612,4.607760000369393]},"properties":{"NOMBRE_EST":"COLEGIO ALFONSO LOPEZ PUMAREJO (IED)"}},{"type":"Feature","geometry":{"type":"Point","coordinates":[-74.14096999982598,4.603530000021025]},"properties":{"NOMBRE_EST":"COLEGIO ALFONSO LOPEZ PUMAREJO (IED)"}},{"type":"Feature","geometry":{"type":"Point","coordinates":[-74.14550999993196,4.63429999999412]},"properties":{"NOMBRE_EST":"COLEGIO EMMA REYES (IED)"}},{"type":"Feature","geometry":{"type":"Point","coordinates":[-74.12948000026807,4.621850000138932]},"properties":{"NOMBRE_EST":"COLEGIO FELIZA BURSZTYN (IED)"}},{"type":"Feature","geometry":{"type":"Point","coordinates":[-74.13930000027177,4.641749999766398]},"properties":{"NOMBRE_EST":"COLEGIO MONTFERRI"}},{"type":"Feature","geometry":{"type":"Point","coordinates":[-74.1480399998268,4.621270000274636]},"properties":{"NOMBRE_EST":"NUEVO LICEO PSICOPEDAGOGICO"}},{"type":"Feature","geometry":{"type":"Point","coordinates":[-74.14752000014312,4.6330600000882844]},"properties":{"NOMBRE_EST":"INSTITUTO FELIX RESTREPO"}},{"type":"Feature","geometry":{"type":"Point","coordinates":[-74.15073999960094,4.608659999826189]},"properties":{"NOMBRE_EST":"COLEGIO COOPERATIVO DE TIMIZA"}},{"type":"Feature","geometry":{"type":"Point","coordinates":[-74.13063000013861,4.63228000013081]},"properties":{"NOMBRE_EST":"INSTITUTO MARSELLA"}},{"type":"Feature","geometry":{"type":"Point","coordinates":[-74.14968000014211,4.627309999578186]},"properties":{"NOMBRE_EST":"GIMNASIO MILITAR FUERZA AEREA DE COLOMBIA"}},{"type":"Feature","geometry":{"type":"Point","coordinates":[-74.13578000033998,4.626330000229976]},"properties":{"NOMBRE_EST":"COLEGIO SUPERIOR AMERICANO"}},{"type":"Feature","geometry":{"type":"Point","coordinates":[-74.143830000332,4.597829999842805]},"properties":{"NOMBRE_EST":"COLEGIO PARROQUIAL SAN ANDRES APOSTOL"}},{"type":"Feature","geometry":{"type":"Point","coordinates":[-74.134790000303,4.626740000295908]},"properties":{"NOMBRE_EST":"COLEGIO INTEGRACION MODERNA"}},{"type":"Feature","geometry":{"type":"Point","coordinates":[-74.14443000038163,4.626989999739155]},"properties":{"NOMBRE_EST":"COLEGIO MANDALAY"}},{"type":"Feature","geometry":{"type":"Point","coordinates":[-74.13026000024277,4.611280000133459]},"properties":{"NOMBRE_EST":"COLEGIO MI PATRIA"}},{"type":"Feature","geometry":{"type":"Point","coordinates":[-74.14190999963422,4.611609999804928]},"properties":{"NOMBRE_EST":"COLEGIO MI SEGUNDO HOGAR"}},{"type":"Feature","geometry":{"type":"Point","coordinates":[-74.14675000021418,4.614820000086021]},"properties":{"NOMBRE_EST":"COLEGIO SANTO DOMINGO BILINGÜE"}},{"type":"Feature","geometry":{"type":"Point","coordinates":[-74.13210999972203,4.624479999819252]},"properties":{"NOMBRE_EST":"UNIDAD EDUCATIVA JEAN PIAGET"}},{"type":"Feature","geometry":{"type":"Point","coordinates":[-74.14372999987458,4.629209999839838]},"properties":{"NOMBRE_EST":"LICEO NORDAM"}},{"type":"Feature","geometry":{"type":"Point","coordinates":[-74.13855999958176,4.602630000340687]},"properties":{"NOMBRE_EST":"LICEO REYNEL"}},{"type":"Feature","geometry":{"type":"Point","coordinates":[-74.14628999990664,4.623339999821946]},"properties":{"NOMBRE_EST":"LICEO ROZFORD"}},{"type":"Feature","geometry":{"type":"Point","coordinates":[-74.14337000002448,4.624910000394203]},"properties":{"NOMBRE_EST":"LICEO PIÑEROS CORTES"}},{"type":"Feature","geometry":{"type":"Point","coordinates":[-74.1415499997841,4.6189399998507294]},"properties":{"NOMBRE_EST":"LICEO INFANTIL LOS FUNDADORES"}},{"type":"Feature","geometry":{"type":"Point","coordinates":[-74.1282700001231,4.627990000210764]},"properties":{"NOMBRE_EST":"JARDIN INFANTIL NUESTRO HONGUITO"}},{"type":"Feature","geometry":{"type":"Point","coordinates":[-74.13535000016967,4.607960000446657]},"properties":{"NOMBRE_EST":"LICEO NUESTRA SEÑORA DE TORCOROMA"}},{"type":"Feature","geometry":{"type":"Point","coordinates":[-74.14936999962238,4.6006299999614555]},"properties":{"NOMBRE_EST":"JARDIN INFANTIL MI SEGUNDA ESTACION"}},{"type":"Feature","geometry":{"type":"Point","coordinates":[-74.14279000006633,4.636740000446233]},"properties":{"NOMBRE_EST":"GIMNASIO PRINCIPES DEL CONDADO"}},{"type":"Feature","geometry":{"type":"Point","coordinates":[-74.13520000038183,4.604240000189348]},"properties":{"NOMBRE_EST":"LICEO SANTA ENGRACIA"}},{"type":"Feature","geometry":{"type":"Point","coordinates":[-74.14588999987356,4.619389999799025]},"properties":{"NOMBRE_EST":"INSTITUTO CULTURAL CIUDAD KENNEDY"}},{"type":"Feature","geometry":{"type":"Point","coordinates":[-74.13554000014045,4.628770000421603]},"properties":{"NOMBRE_EST":"COLEGIO MANUEL MURILLO TORO"}},{"type":"Feature","geometry":{"type":"Point","coordinates":[-74.1291999998856,4.617930000220528]},"properties":{"NOMBRE_EST":"NUEVO LICEO ACADEMICO"}},{"type":"Feature","geometry":{"type":"Point","coordinates":[-74.12629000004918,4.634649999747216]},"properties":{"NOMBRE_EST":"JARDIN INFANTIL RISITAS"}},{"type":"Feature","geometry":{"type":"Point","coordinates":[-74.13925000004306,4.633939999581247]},"properties":{"NOMBRE_EST":"COLEGIO BILINGÜE MELANIE KLEIN"}},{"type":"Feature","geometry":{"type":"Point","coordinates":[-74.151179999817,4.625219999668074]},"properties":{"NOMBRE_EST":"COLEGIO CELCO SAN LUCAS"}},{"type":"Feature","geometry":{"type":"Point","coordinates":[-74.14019999989705,4.602239999857163]},"properties":{"NOMBRE_EST":"COLEGIO ANTARES"}},{"type":"Feature","geometry":{"type":"Point","coordinates":[-74.14751000009738,4.629120000225296]},"properties":{"NOMBRE_EST":"INSTITUTO RENATO DESCARTES"}},{"type":"Feature","geometry":{"type":"Point","coordinates":[-74.15275999985784,4.605340000438155]},"properties":{"NOMBRE_EST":"INSTITUTO COMERCIAL LORETO SEDE B"}},{"type":"Feature","geometry":{"type":"Point","coordinates":[-74.14138999995055,4.630380000054979]},"properties":{"NOMBRE_EST":"JARDIN INFANTIL PSICOPEDAGOGICO EDUCACION PERSONALIZADA Y ESTIMULACION TEMPRANA"}},{"type":"Feature","geometry":{"type":"Point","coordinates":[-74.15137999983354,4.6049699996488815]},"properties":{"NOMBRE_EST":"JARDIN INFANTIL JARDINERITOS"}},{"type":"Feature","geometry":{"type":"Point","coordinates":[-74.14102000005468,4.641969999945645]},"properties":{"NOMBRE_EST":"LICEO PSICOPEDAGOGICO NUEVA CASTILLA"}},{"type":"Feature","geometry":{"type":"Point","coordinates":[-74.12973999966076,4.613120000171472]},"properties":{"NOMBRE_EST":"JARDIN PSICOPEDAGOGICO DINNY LENNY"}},{"type":"Feature","geometry":{"type":"Point","coordinates":[-74.1302200000598,4.633530000106377]},"properties":{"NOMBRE_EST":"JARDIN INFANTIL POMPIN Y TATARIN"}},{"type":"Feature","geometry":{"type":"Point","coordinates":[-74.13560000041491,4.626720000014299]},"properties":{"NOMBRE_EST":"JARDIN PSICOPEDAGOGICO BEBES DISNEY"}},{"type":"Feature","geometry":{"type":"Point","coordinates":[-74.13841999983966,4.619789999612814]},"properties":{"NOMBRE_EST":"COLEGIO CHAMBERS"}},{"type":"Feature","geometry":{"type":"Point","coordinates":[-74.13498000027381,4.642190000056308]},"properties":{"NOMBRE_EST":"GIMNASIO PSICOPEDAGOGICO PERSONALIZADO E INTEGRAL"}},{"type":"Feature","geometry":{"type":"Point","coordinates":[-74.14451999989501,4.612460000287611]},"properties":{"NOMBRE_EST":"COLEGIO MUÑECOS Y FIGURAS"}},{"type":"Feature","geometry":{"type":"Point","coordinates":[-74.1473500002638,4.632539999913753]},"properties":{"NOMBRE_EST":"LICEO PEDAGOGICO LOS JILGUEROS"}},{"type":"Feature","geometry":{"type":"Point","coordinates":[-74.14192999972572,4.634329999647202]},"properties":{"NOMBRE_EST":"GIMNASIO RINCON DE LOS ANGELES"}},{"type":"Feature","geometry":{"type":"Point","coordinates":[-74.14240000007898,4.623490000397634]},"properties":{"NOMBRE_EST":"JARDIN INFANTIL DE APRESTAMIENTO ESCOLAR ABC DE LA ALEGRIA"}},{"type":"Feature","geometry":{"type":"Point","coordinates":[-74.14529999986968,4.6377100001566305]},"properties":{"NOMBRE_EST":"JARDIN INFANTIL MIS CARIÑOSITOS"}},{"type":"Feature","geometry":{"type":"Point","coordinates":[-74.14228000042841,4.621840000376873]},"properties":{"NOMBRE_EST":"INSTITUTO PSICOPEDAGOGICO EMMANUEL MOUNIER"}},{"type":"Feature","geometry":{"type":"Point","coordinates":[-74.14348999967507,4.6047399996178715]},"properties":{"NOMBRE_EST":"LICEO PEDAGOGICO AUGUSTO COMTE"}},{"type":"Feature","geometry":{"type":"Point","coordinates":[-74.14530999991543,4.633150000096897]},"properties":{"NOMBRE_EST":"GIMNASIO MODERNO PASOS Y HUELLAS DEL MAESTRO"}},{"type":"Feature","geometry":{"type":"Point","coordinates":[-74.14918999969733,4.624649999598825]},"properties":{"NOMBRE_EST":"INSTITUCION EDUCATIVA SAN NICOLAS LTDA"}},{"type":"Feature","geometry":{"type":"Point","coordinates":[-74.14135999981332,4.626000000244651]},"properties":{"NOMBRE_EST":"GIMNASIO LAS ALEGRIAS DE CRECER"}},{"type":"Feature","geometry":{"type":"Point","coordinates":[-74.15123000004571,4.628020000131445]},"properties":{"NOMBRE_EST":"COLEGIO INFANTIL DE APRENDIZAJE Y DESARROLLO"}},{"type":"Feature","geometry":{"type":"Point","coordinates":[-74.14908000009248,4.634340000128166]},"properties":{"NOMBRE_EST":"COLEGIO NUEVO PARAISO"}},{"type":"Feature","geometry":{"type":"Point","coordinates":[-74.15194999974594,4.606029999726035]},"properties":{"NOMBRE_EST":"LICEO PARQUE DE MORAVIA"}},{"type":"Feature","geometry":{"type":"Point","coordinates":[-74.13039999998485,4.634129999846888]},"properties":{"NOMBRE_EST":"GIMNASIO MARONY"}},{"type":"Feature","geometry":{"type":"Point","coordinates":[-74.14432999992421,4.596889999669909]},"properties":{"NOMBRE_EST":"JARDIN INFANTIL EL ROSAL DE MI INFANCIA"}},{"type":"Feature","geometry":{"type":"Point","coordinates":[-74.1458499996906,4.602090000165275]},"properties":{"NOMBRE_EST":"LICEO PSICOPEDAGOGICO SAN ANGELO"}},{"type":"Feature","geometry":{"type":"Point","coordinates":[-74.1384499999769,4.629529999570514]},"properties":{"NOMBRE_EST":"JARDIN INFANTIL BILINGÜE EL MUNDO DE MIS FANTASIAS"}},{"type":"Feature","geometry":{"type":"Point","coordinates":[-74.13272999986313,4.62737000037131]},"properties":{"NOMBRE_EST":"GIMNASIO PSICOPEDAGOGICO MARIA ISABEL"}},{"type":"Feature","geometry":{"type":"Point","coordinates":[-74.13737999957398,4.635859999962859]},"properties":{"NOMBRE_EST":"MIMOSITOS LICEO INFANTIL"}},{"type":"Feature","geometry":{"type":"Point","coordinates":[-74.14267000041573,4.6388399998562875]},"properties":{"NOMBRE_EST":"GIMNASIO MODERNO CASTILLA"}},{"type":"Feature","geometry":{"type":"Point","coordinates":[-74.12959999991868,4.629200000181708]},"properties":{"NOMBRE_EST":"JARDIN INFANTIL LA CASITA DE CHENANO"}},{"type":"Feature","geometry":{"type":"Point","coordinates":[-74.14124000016271,4.639359999871231]},"properties":{"NOMBRE_EST":"LICEO EMMANUELE MARLUI"}},{"type":"Feature","geometry":{"type":"Point","coordinates":[-74.1367600003312,4.6420000001682755]},"properties":{"NOMBRE_EST":"KINDERGARDEN AMERICANO"}},{"type":"Feature","geometry":{"type":"Point","coordinates":[-74.12657000043164,4.622150000098669]},"properties":{"NOMBRE_EST":"LICEO EL MUNDO DEL MAÑANA"}},{"type":"Feature","geometry":{"type":"Point","coordinates":[-74.15271999967489,4.619819999880773]},"properties":{"NOMBRE_EST":"COLEGIO CHARLES BABBAGGE"}},{"type":"Feature","geometry":{"type":"Point","coordinates":[-74.14187000034957,4.608269999962683]},"properties":{"NOMBRE_EST":"INSTITUTO POLITECNICO JOSE CELESTINO MUTIS"}},{"type":"Feature","geometry":{"type":"Point","coordinates":[-74.151179999817,4.619980000094491]},"properties":{"NOMBRE_EST":"CENTRO DE EDUCACION ROBERT HOOKE"}},{"type":"Feature","geometry":{"type":"Point","coordinates":[-74.15178999991237,4.632999999777727]},"properties":{"NOMBRE_EST":"GIMNASIO NIÑOS FELICES"}},{"type":"Feature","geometry":{"type":"Point","coordinates":[-74.1410700002834,4.619479999754407]},"properties":{"NOMBRE_EST":"COLEGIO SAN ANGEL"}},{"type":"Feature","geometry":{"type":"Point","coordinates":[-74.14435000001569,4.639970000433738]},"properties":{"NOMBRE_EST":"INSTITUTO COMERCIAL LORETO"}},{"type":"Feature","geometry":{"type":"Point","coordinates":[-74.14494000001957,4.629159999756945]},"properties":{"NOMBRE_EST":"GIMNASIO MODERNO SAN MARTIN"}},{"type":"Feature","geometry":{"type":"Point","coordinates":[-74.13366999967138,4.63060999983143]},"properties":{"NOMBRE_EST":"LICEO CONQUISTADORES DE LAS AMERICAS"}},{"type":"Feature","geometry":{"type":"Point","coordinates":[-74.12818999975714,4.615620000164551]},"properties":{"NOMBRE_EST":"LICEO INFANTIL MICHELIN"}},{"type":"Feature","geometry":{"type":"Point","coordinates":[-74.14658000033486,4.613319999635296]},"properties":{"NOMBRE_EST":"JARDIN INFANTIL BURBUJAS DE ALEGRIA"}},{"type":"Feature","geometry":{"type":"Point","coordinates":[-74.13864999999343,4.640649999632218]},"properties":{"NOMBRE_EST":"GIMNASIO SUPERIOR NUEVOS ANDES"}},{"type":"Feature","geometry":{"type":"Point","coordinates":[-74.13655000026891,4.627910000117576]},"properties":{"NOMBRE_EST":"COLEGIO TALENTOS"}},{"type":"Feature","geometry":{"type":"Point","coordinates":[-74.15134999969632,4.622309999786462]},"properties":{"NOMBRE_EST":"COLEGIO TECNISISTEMAS"}},{"type":"Feature","geometry":{"type":"Point","coordinates":[-74.15089000028709,4.621270000274636]},"properties":{"NOMBRE_EST":"LICEO BIRMINGHAM"}},{"type":"Feature","geometry":{"type":"Point","coordinates":[-74.137599999682,4.602789999949195]},"properties":{"NOMBRE_EST":"COLEGIO GIANNI RODARI"}},{"type":"Feature","geometry":{"type":"Point","coordinates":[-74.07976000010855,4.634759999608241]},"properties":{"NOMBRE_EST":"INSTITUTO PEDAGOGICO ARTURO RAMIREZ MONTUFAR"}},{"type":"Feature","geometry":{"type":"Point","coordinates":[-74.08168999995377,4.62972000012556]},"properties":{"NOMBRE_EST":"COLEGIO MANUELA BELTRAN (IED)"}},{"type":"Feature","geometry":{"type":"Point","coordinates":[-74.07422999996561,4.63811000036005]},"properties":{"NOMBRE_EST":"COLEGIO TECNICO PALERMO (IED)"}},{"type":"Feature","geometry":{"type":"Point","coordinates":[-74.07396999967462,4.6184899996169095]},"properties":{"NOMBRE_EST":"COLEGIO GEORGE WILLIAMS"}},{"type":"Feature","geometry":{"type":"Point","coordinates":[-74.07894999999665,4.629699999928172]},"properties":{"NOMBRE_EST":"COLEGIO GLENN DOMAN"}},{"type":"Feature","geometry":{"type":"Point","coordinates":[-74.07280999975835,4.617430000226019]},"properties":{"NOMBRE_EST":"LICEO LATINOAMERICANO"}},{"type":"Feature","geometry":{"type":"Point","coordinates":[-74.06712999982756,4.642610000239884]},"properties":{"NOMBRE_EST":"COLEGIO INTEGRAL ERVID"}},{"type":"Feature","geometry":{"type":"Point","coordinates":[-74.07651999966092,4.633869999753242]},"properties":{"NOMBRE_EST":"COLEGIO EL CARMELO"}},{"type":"Feature","geometry":{"type":"Point","coordinates":[-74.07388000016124,4.634320000061423]},"properties":{"NOMBRE_EST":"COLEGIO AMERICANO DE BOGOTA"}},{"type":"Feature","geometry":{"type":"Point","coordinates":[-74.07670999963173,4.624959999881899]},"properties":{"NOMBRE_EST":"COLEGIO SANTA CLARA"}},{"type":"Feature","geometry":{"type":"Point","coordinates":[-74.07251000018269,4.622250000355468]},"properties":{"NOMBRE_EST":"GIMNASIO SANTA ROSA DE LIMA"}},{"type":"Feature","geometry":{"type":"Point","coordinates":[-74.07233000025761,4.639880000398562]},"properties":{"NOMBRE_EST":"LICEO PARROQUIAL SARA ZAPATA"}},{"type":"Feature","geometry":{"type":"Point","coordinates":[-74.08860000012102,4.6264599998835045]},"properties":{"NOMBRE_EST":"GIMNASIO ANTONIO NARIÑO"}},{"type":"Feature","geometry":{"type":"Point","coordinates":[-74.07099000041629,4.62979000036434]},"properties":{"NOMBRE_EST":"COLEGIO CHAMPAGNAT"}},{"type":"Feature","geometry":{"type":"Point","coordinates":[-74.07278999966684,4.6279600002888115]},"properties":{"NOMBRE_EST":"JARDIN INFANTIL MERCEDITAS"}},{"type":"Feature","geometry":{"type":"Point","coordinates":[-74.06712999982756,4.642610000239884]},"properties":{"NOMBRE_EST":"COLEGIO BOGOTANO MIXTO"}},{"type":"Feature","geometry":{"type":"Point","coordinates":[-74.07852999987207,4.635520000377976]},"properties":{"NOMBRE_EST":"JARDIN INFANTIL LOS ANGELES"}},{"type":"Feature","geometry":{"type":"Point","coordinates":[-74.07744000027601,4.630840000428477]},"properties":{"NOMBRE_EST":"JARDIN PEDAGOGICO RAFAEL POMBO"}},{"type":"Feature","geometry":{"type":"Point","coordinates":[-74.09712999961377,4.636820000435851]},"properties":{"NOMBRE_EST":"GIMNASIO WILLIAM MACKINLEY"}},{"type":"Feature","geometry":{"type":"Point","coordinates":[-74.07633999973586,4.630339999696932]},"properties":{"NOMBRE_EST":"JARDIN INFANTIL CARACOLITO"}},{"type":"Feature","geometry":{"type":"Point","coordinates":[-74.06850999985186,4.634259999857821]},"properties":{"NOMBRE_EST":"LICEO DE LA UNIVERSIDAD CATOLICA"}},{"type":"Feature","geometry":{"type":"Point","coordinates":[-74.08057000022046,4.630000000143702]},"properties":{"NOMBRE_EST":"GIMNASIO AMIGUITOS DEL MUNDO"}},{"type":"Feature","geometry":{"type":"Point","coordinates":[-74.07275000038219,4.624839999672856]},"properties":{"NOMBRE_EST":"COLEGIO CASA ACADEMICA CULTURAL"}},{"type":"Feature","geometry":{"type":"Point","coordinates":[-74.07745000032175,4.631020000103932]},"properties":{"NOMBRE_EST":"GIMNASIO MOUNT SINAI"}},{"type":"Feature","geometry":{"type":"Point","coordinates":[-74.09270000001096,4.631760000278049]},"properties":{"NOMBRE_EST":"GIMNASIO MIS CHICCOS"}},{"type":"Feature","geometry":{"type":"Point","coordinates":[-74.08382999986125,4.626650000367293]},"properties":{"NOMBRE_EST":"COLEGIO VIRTUAL SIGLO XXI"}},{"type":"Feature","geometry":{"type":"Point","coordinates":[-74.07683000018065,4.641130000357425]},"properties":{"NOMBRE_EST":"JARDIN INFANTIL DATA SESAMO"}},{"type":"Feature","geometry":{"type":"Point","coordinates":[-74.0968500001296,4.633709999992461]},"properties":{"NOMBRE_EST":"GIMNASIO SUPER BEBE"}},{"type":"Feature","geometry":{"type":"Point","coordinates":[-74.07219999966296,4.634360000194363]},"properties":{"NOMBRE_EST":"JARDIN INFANTIL EL OSITO PELUSIN"}},{"type":"Feature","geometry":{"type":"Point","coordinates":[-74.0950900001637,4.6299299999256975]},"properties":{"NOMBRE_EST":"COLEGIO LOS ANGELES DE HELVETIA"}},{"type":"Feature","geometry":{"type":"Point","coordinates":[-74.0827200001737,4.632149999755766]},"properties":{"NOMBRE_EST":"PREESCOLAR ARTISTICO AMBIENTAL SEMILLAS"}},{"type":"Feature","geometry":{"type":"Point","coordinates":[-74.07081999963866,4.623089999985685]},"properties":{"NOMBRE_EST":"COLEGIO BOSTON"}},{"type":"Feature","geometry":{"type":"Point","coordinates":[-74.09568000016758,4.633849999673191]},"properties":{"NOMBRE_EST":"COLEGIO SAN ANGEL SALITRE"}},{"type":"Feature","geometry":{"type":"Point","coordinates":[-74.07313000032379,4.640629999744145]},"properties":{"NOMBRE_EST":"COLEGIO FORMARTE"}},{"type":"Feature","geometry":{"type":"Point","coordinates":[-74.06809999977304,4.633609999563988]},"properties":{"NOMBRE_EST":"LICEO TOMAS MORALES"}},{"type":"Feature","geometry":{"type":"Point","coordinates":[-74.06629999962416,4.641319999584309]},"properties":{"NOMBRE_EST":"COLEGIO MONTEHELENA - CICLOS"}},{"type":"Feature","geometry":{"type":"Point","coordinates":[-74.06629999962416,4.641319999584309]},"properties":{"NOMBRE_EST":"COLEGIO MONTEHELENA BILINGÜE"}},{"type":"Feature","geometry":{"type":"Point","coordinates":[-74.09220000041876,4.5944000002595216]},"properties":{"NOMBRE_EST":"COLEGIO EDUARDO SANTOS (IED)"}},{"type":"Feature","geometry":{"type":"Point","coordinates":[-74.09579999981818,4.596819999769336]},"properties":{"NOMBRE_EST":"COLEGIO EDUARDO SANTOS (IED)"}},{"type":"Feature","geometry":{"type":"Point","coordinates":[-74.07946999968033,4.6151499999031085]},"properties":{"NOMBRE_EST":"COLEGIO REPUBLICA BOLIVARIANA DE VENEZUELA (IED)"}},{"type":"Feature","geometry":{"type":"Point","coordinates":[-74.0831999996744,4.618420000052293]},"properties":{"NOMBRE_EST":"COLEGIO REPUBLICA BOLIVARIANA DE VENEZUELA (IED)"}},{"type":"Feature","geometry":{"type":"Point","coordinates":[-74.09223999970342,4.594189999803668]},"properties":{"NOMBRE_EST":"COLEGIO SAN FRANCISCO DE ASIS (IED)"}},{"type":"Feature","geometry":{"type":"Point","coordinates":[-74.0942800000518,4.596349999619429]},"properties":{"NOMBRE_EST":"COLEGIO SAN FRANCISCO DE ASIS (IED)"}},{"type":"Feature","geometry":{"type":"Point","coordinates":[-74.08799000002564,4.60829999982203]},"properties":{"NOMBRE_EST":"COLEGIO LICEO NACIONAL ANTONIA SANTOS (IED)"}},{"type":"Feature","geometry":{"type":"Point","coordinates":[-74.08801000011714,4.60784000004888]},"properties":{"NOMBRE_EST":"COLEGIO LICEO NACIONAL ANTONIA SANTOS (IED)"}},{"type":"Feature","geometry":{"type":"Point","coordinates":[-74.08192000010754,4.60574000010686]},"properties":{"NOMBRE_EST":"ESCUELA TECNOLOGICA INSTITUTO TECNICO CENTRAL"}},{"type":"Feature","geometry":{"type":"Point","coordinates":[-74.08591000039262,4.605500000332634]},"properties":{"NOMBRE_EST":"COLEGIO LICEO NACIONAL AGUSTIN NIETO CABALLERO (IED)"}},{"type":"Feature","geometry":{"type":"Point","coordinates":[-74.09267999991947,4.594119999637989]},"properties":{"NOMBRE_EST":"COLEGIO TECNICO MENORAH (IED)"}},{"type":"Feature","geometry":{"type":"Point","coordinates":[-74.10341999963991,4.596190000355018]},"properties":{"NOMBRE_EST":"COLEGIO TECNICO MENORAH (IED)"}},{"type":"Feature","geometry":{"type":"Point","coordinates":[-74.07881000025456,4.623040000366034]},"properties":{"NOMBRE_EST":"COLEGIO PANAMERICANO (IED)"}},{"type":"Feature","geometry":{"type":"Point","coordinates":[-74.09398999962357,4.6061600004123395]},"properties":{"NOMBRE_EST":"COLEGIO RICAURTE (IED)"}},{"type":"Feature","geometry":{"type":"Point","coordinates":[-74.09472000026786,4.6101999999741565]},"properties":{"NOMBRE_EST":"COLEGIO RICAURTE (IED)"}},{"type":"Feature","geometry":{"type":"Point","coordinates":[-74.09694999968872,4.595509999722631]},"properties":{"NOMBRE_EST":"COLEGIO HERMANAS MISIONERAS DE LA CONSOLATA"}},{"type":"Feature","geometry":{"type":"Point","coordinates":[-74.09452000025131,4.609449999743336]},"properties":{"NOMBRE_EST":"LICEO PARROQUIAL SAN GREGORIO MAGNO"}},{"type":"Feature","geometry":{"type":"Point","coordinates":[-74.08439999977367,4.621880000319731]},"properties":{"NOMBRE_EST":"COLEGIO UNIDAD RESIDENCIAL COLSEGUROS"}},{"type":"Feature","geometry":{"type":"Point","coordinates":[-74.09557999971017,4.601730000417698]},"properties":{"NOMBRE_EST":"COLEGIO NUESTRA SEÑORA DE LAS LAJAS"}},{"type":"Feature","geometry":{"type":"Point","coordinates":[-74.09220000041876,4.6123600004416385]},"properties":{"NOMBRE_EST":"COLEGIO SAN JOSE"}},{"type":"Feature","geometry":{"type":"Point","coordinates":[-74.09147999982022,4.594419999660117]},"properties":{"NOMBRE_EST":"COLEGIO NUESTRA SEÑORA DE LA PAZ"}},{"type":"Feature","geometry":{"type":"Point","coordinates":[-74.0810799998584,4.612050000023773]},"properties":{"NOMBRE_EST":"COLEGIO DE NUESTRA SEÑORA DE LA PRESENTACION CENTRO"}},{"type":"Feature","geometry":{"type":"Point","coordinates":[-74.09789000039528,4.598220000055396]},"properties":{"NOMBRE_EST":"COLEGIO EXTERNADO CULTURAL"}},{"type":"Feature","geometry":{"type":"Point","coordinates":[-74.09342999975692,4.59515000023133]},"properties":{"NOMBRE_EST":"COLEGIO SANTA ELENA MIXTO"}},{"type":"Feature","geometry":{"type":"Point","coordinates":[-74.08936000000422,4.601850000055297]},"properties":{"NOMBRE_EST":"COLEGIO PARROQUIAL SAN ROQUE"}},{"type":"Feature","geometry":{"type":"Point","coordinates":[-74.10423999979756,4.597440000312151]},"properties":{"NOMBRE_EST":"COLEGIO BILINGÜE INTEGRAL"}},{"type":"Feature","geometry":{"type":"Point","coordinates":[-74.09895999989986,4.601089999919447]},"properties":{"NOMBRE_EST":"COLEGIO BILINGÜE CEDAM"}},{"type":"Feature","geometry":{"type":"Point","coordinates":[-74.08317999958292,4.614189999602223]},"properties":{"NOMBRE_EST":"JARDIN INFANTIL HUELLITAS MAGICAS"}},{"type":"Feature","geometry":{"type":"Point","coordinates":[-74.09111999997012,4.597299999716821]},"properties":{"NOMBRE_EST":"COLEGIO SANTO STEFANO"}},{"type":"Feature","geometry":{"type":"Point","coordinates":[-74.09487000005568,4.608560000340764]},"properties":{"NOMBRE_EST":"JARDIN INFANTIL SERVIMOS"}},{"type":"Feature","geometry":{"type":"Point","coordinates":[-74.09080000030298,4.613710000308088]},"properties":{"NOMBRE_EST":"COLEGIO TRIANGULO PALOQUEMAO"}},{"type":"Feature","geometry":{"type":"Point","coordinates":[-74.0953999997851,4.600860000425314]},"properties":{"NOMBRE_EST":"JARDIN PSICOPEDAGOGICO EL MANANTIAL DEL SABER"}},{"type":"Feature","geometry":{"type":"Point","coordinates":[-74.07894999999665,4.619729999968519]},"properties":{"NOMBRE_EST":"TALLER PSICOPEDAGOGICO MIS PEQUEÑOS ARTISTAS"}},{"type":"Feature","geometry":{"type":"Point","coordinates":[-74.09303999976957,4.604430000353847]},"properties":{"NOMBRE_EST":"JARDIN INFANTIL Y GUARDERIA RICAURTE"}},{"type":"Feature","geometry":{"type":"Point","coordinates":[-74.10620999982574,4.59868999986721]},"properties":{"NOMBRE_EST":"COLEGIO SUPERIOR PALERMO SANTA ISABEL"}},{"type":"Feature","geometry":{"type":"Point","coordinates":[-74.10344999977714,4.599119999937776]},"properties":{"NOMBRE_EST":"JARDIN INFANTIL MALU Y YO"}},{"type":"Feature","geometry":{"type":"Point","coordinates":[-74.10108999976163,4.587139999922148]},"properties":{"NOMBRE_EST":"COLEGIO GUILLERMO LEON VALENCIA (IED)"}},{"type":"Feature","geometry":{"type":"Point","coordinates":[-74.10297000027644,4.588869999868647]},"properties":{"NOMBRE_EST":"COLEGIO GUILLERMO LEON VALENCIA (IED)"}},{"type":"Feature","geometry":{"type":"Point","coordinates":[-74.09360999968197,4.59130999972096]},"properties":{"NOMBRE_EST":"COLEGIO GUILLERMO LEON VALENCIA (IED)"}},{"type":"Feature","geometry":{"type":"Point","coordinates":[-74.09697999982595,4.585199999847114]},"properties":{"NOMBRE_EST":"COLEGIO ESCUELA NORMAL SUPERIOR DISTRITAL MARIA MONTESSORI (IED)"}},{"type":"Feature","geometry":{"type":"Point","coordinates":[-74.0934699999399,4.586180000358987]},"properties":{"NOMBRE_EST":"COLEGIO ESCUELA NORMAL SUPERIOR DISTRITAL MARIA MONTESSORI (IED)"}},{"type":"Feature","geometry":{"type":"Point","coordinates":[-74.10458999960193,4.5943500004124225]},"properties":{"NOMBRE_EST":"COLEGIO ATANASIO GIRARDOT (IED)"}},{"type":"Feature","geometry":{"type":"Point","coordinates":[-74.09745000017924,4.593019999969393]},"properties":{"NOMBRE_EST":"COLEGIO ATANASIO GIRARDOT (IED)"}},{"type":"Feature","geometry":{"type":"Point","coordinates":[-74.10993999981984,4.593999999593789]},"properties":{"NOMBRE_EST":"COLEGIO ATANASIO GIRARDOT (IED)"}},{"type":"Feature","geometry":{"type":"Point","coordinates":[-74.09756999982982,4.590510000072085]},"properties":{"NOMBRE_EST":"COLEGIO FRANCISCO DE PAULA SANTANDER (IED)"}},{"type":"Feature","geometry":{"type":"Point","coordinates":[-74.11387999987619,4.591039999872572]},"properties":{"NOMBRE_EST":"COLEGIO FRANCISCO DE PAULA SANTANDER (IED)"}},{"type":"Feature","geometry":{"type":"Point","coordinates":[-74.08840000010449,4.586089999774096]},"properties":{"NOMBRE_EST":"COLEGIO TECNICO JAIME PARDO LEAL (IED)"}},{"type":"Feature","geometry":{"type":"Point","coordinates":[-74.10047999966625,4.5897000002078086]},"properties":{"NOMBRE_EST":"COLEGIO PARROQUIAL NUESTRA SEÑORA DE LA VALVANERA"}},{"type":"Feature","geometry":{"type":"Point","coordinates":[-74.09754999973835,4.588829999860309]},"properties":{"NOMBRE_EST":"COLEGIO ADVENTISTA EMMANUEL"}},{"type":"Feature","geometry":{"type":"Point","coordinates":[-74.11363999967668,4.588850000312459]},"properties":{"NOMBRE_EST":"CENTRO EDUCATIVO DE NUESTRA SEÑORA DE LA PAZ"}},{"type":"Feature","geometry":{"type":"Point","coordinates":[-74.0916399996538,4.586919999763142]},"properties":{"NOMBRE_EST":"INSTITUTO BOGOTA"}},{"type":"Feature","geometry":{"type":"Point","coordinates":[-74.09661999997583,4.58224000035557]},"properties":{"NOMBRE_EST":"COLEGIO COOPERATIVO DEL MAGISTERIO DE CUNDINAMARCA"}},{"type":"Feature","geometry":{"type":"Point","coordinates":[-74.1128100003716,4.590300000261884]},"properties":{"NOMBRE_EST":"ESCUELA NORMAL SUPERIOR NUESTRA SEÑORA DE LA PAZ"}},{"type":"Feature","geometry":{"type":"Point","coordinates":[-74.10773999963787,4.595810000055269]},"properties":{"NOMBRE_EST":"COLEGIO PARROQUIAL DEL SANTO CURA DE ARS"}},{"type":"Feature","geometry":{"type":"Point","coordinates":[-74.09864000023272,4.582109999785279]},"properties":{"NOMBRE_EST":"INSTITUTO JULIO MARIA MATOVELLE"}},{"type":"Feature","geometry":{"type":"Point","coordinates":[-74.09398999962357,4.590369999907008]},"properties":{"NOMBRE_EST":"COLEGIO CRISTO REY DEL SUR"}},{"type":"Feature","geometry":{"type":"Point","coordinates":[-74.09750999955537,4.5839600002333425]},"properties":{"NOMBRE_EST":"INSTITUTO ACADEMICO BETHEL"}},{"type":"Feature","geometry":{"type":"Point","coordinates":[-74.12237000008429,4.592909999909201]},"properties":{"NOMBRE_EST":"LICEO MODERNO WALT WHITMAN"}},{"type":"Feature","geometry":{"type":"Point","coordinates":[-74.11498000041631,4.589439999968061]},"properties":{"NOMBRE_EST":"COLEGIO EDUARDO FREI"}},{"type":"Feature","geometry":{"type":"Point","coordinates":[-74.09936999997869,4.581289999913967]},"properties":{"NOMBRE_EST":"JARDIN INFANTIL CARTAGENA DE INDIAS"}},{"type":"Feature","geometry":{"type":"Point","coordinates":[-74.12063000020987,4.592329999718377]},"properties":{"NOMBRE_EST":"JARDIN INFANTIL MI NUEVO MUNDO"}},{"type":"Feature","geometry":{"type":"Point","coordinates":[-74.09196000021925,4.589000000104192]},"properties":{"NOMBRE_EST":"COLEGIO GUSTAVO ROJAS PINILLA"}},{"type":"Feature","geometry":{"type":"Point","coordinates":[-74.09545000001383,4.591129999833374]},"properties":{"NOMBRE_EST":"LICEO PEDAGOGICO MARCEL MARCEAU"}},{"type":"Feature","geometry":{"type":"Point","coordinates":[-74.09844000021619,4.583279999589416]},"properties":{"NOMBRE_EST":"JARDIN INFANTIL TRINEO DE LA ALEGRIA"}},{"type":"Feature","geometry":{"type":"Point","coordinates":[-74.0924499997657,4.5843900002276]},"properties":{"NOMBRE_EST":"JARDIN INFANTIL DEL ARCO IRIS"}},{"type":"Feature","geometry":{"type":"Point","coordinates":[-74.09172000001973,4.582950000228891]},"properties":{"NOMBRE_EST":"JARDIN INFANTIL GOMELITOS"}},{"type":"Feature","geometry":{"type":"Point","coordinates":[-74.0973699998133,4.578429999600098]},"properties":{"NOMBRE_EST":"COLEGIO BILINGÜE SAN GABRIEL ARCANGEL"}},{"type":"Feature","geometry":{"type":"Point","coordinates":[-74.1158099997214,4.593439999717499]},"properties":{"NOMBRE_EST":"COLEGIO INTEGRAL SAN JORGE CENTRAL"}},{"type":"Feature","geometry":{"type":"Point","coordinates":[-74.1017700001772,4.584290000022962]},"properties":{"NOMBRE_EST":"COLEGIO CENCOSISTEMAS"}},{"type":"Feature","geometry":{"type":"Point","coordinates":[-74.09576999968095,4.589019999656169]},"properties":{"NOMBRE_EST":"JARDIN INFANTIL MIS PEQUEÑAS TRAVESURAS"}},{"type":"Feature","geometry":{"type":"Point","coordinates":[-74.09704000010039,4.585090000372743]},"properties":{"NOMBRE_EST":"BACHILLERATO A DISTANCIA PARA JOVENES Y ADULTOS DE LA UNIVERSIDAD NACIONAL ABIERTA Y A DISTANCIA UNAD-REGIONAL BOGOTA"}},{"type":"Feature","geometry":{"type":"Point","coordinates":[-74.09205999977837,4.587840000058627]},"properties":{"NOMBRE_EST":"JARDIN INFANTIL LOS PINGUINOS"}},{"type":"Feature","geometry":{"type":"Point","coordinates":[-74.09307999995255,4.58834000024762]},"properties":{"NOMBRE_EST":"GIMNASIO MONSEÑOR MANUEL MARIA CAMARGO"}},{"type":"Feature","geometry":{"type":"Point","coordinates":[-74.10320999957763,4.5822999995775895]},"properties":{"NOMBRE_EST":"CENTRO PANAMERICANO DE CAPACITACION"}},{"type":"Feature","geometry":{"type":"Point","coordinates":[-74.12198000009694,4.593559999855933]},"properties":{"NOMBRE_EST":"LICEO INTEGRAL BOGOTA"}},{"type":"Feature","geometry":{"type":"Point","coordinates":[-74.1034399997314,4.591140000027338]},"properties":{"NOMBRE_EST":"PREESCOLAR RONDAS Y SABERES"}},{"type":"Feature","geometry":{"type":"Point","coordinates":[-74.11068999965728,4.591010000181603]},"properties":{"NOMBRE_EST":"COLEGIO CIES"}},{"type":"Feature","geometry":{"type":"Point","coordinates":[-74.12045000028482,4.606270000216802]},"properties":{"NOMBRE_EST":"COLEGIO DE CULTURA POPULAR (IED)"}},{"type":"Feature","geometry":{"type":"Point","coordinates":[-74.12369999987988,4.597929999940628]},"properties":{"NOMBRE_EST":"COLEGIO DE CULTURA POPULAR (IED)"}},{"type":"Feature","geometry":{"type":"Point","coordinates":[-74.12283000039183,4.598950000315717]},"properties":{"NOMBRE_EST":"COLEGIO DE CULTURA POPULAR (IED)"}},{"type":"Feature","geometry":{"type":"Point","coordinates":[-74.10135000005262,4.622370000107796]},"properties":{"NOMBRE_EST":"COLEGIO LA MERCED (IED)"}},{"type":"Feature","geometry":{"type":"Point","coordinates":[-74.11239000024703,4.629909999734238]},"properties":{"NOMBRE_EST":"COLEGIO SILVERIA ESPINOSA DE RENDON (IED)"}},{"type":"Feature","geometry":{"type":"Point","coordinates":[-74.12158000006387,4.624010000058314]},"properties":{"NOMBRE_EST":"COLEGIO SILVERIA ESPINOSA DE RENDON (IED)"}},{"type":"Feature","geometry":{"type":"Point","coordinates":[-74.11700999982065,4.62701000001313]},"properties":{"NOMBRE_EST":"COLEGIO SILVERIA ESPINOSA DE RENDON (IED)"}},{"type":"Feature","geometry":{"type":"Point","coordinates":[-74.13030999957317,4.599349999993899]},"properties":{"NOMBRE_EST":"COLEGIO ANDRES BELLO (IED)"}},{"type":"Feature","geometry":{"type":"Point","coordinates":[-74.13030999957317,4.599349999993899]},"properties":{"NOMBRE_EST":"COLEGIO ANDRES BELLO (IED)"}},{"type":"Feature","geometry":{"type":"Point","coordinates":[-74.11494000023335,4.610129999592137]},"properties":{"NOMBRE_EST":"COLEGIO EL JAZMIN (IED)"}},{"type":"Feature","geometry":{"type":"Point","coordinates":[-74.1092900004398,4.615529999719464]},"properties":{"NOMBRE_EST":"COLEGIO EL JAZMIN (IED)"}},{"type":"Feature","geometry":{"type":"Point","coordinates":[-74.09302999972383,4.6218100001944205]},"properties":{"NOMBRE_EST":"COLEGIO ESPAÑA (IED)"}},{"type":"Feature","geometry":{"type":"Point","coordinates":[-74.08953999992927,4.622559999897879]},"properties":{"NOMBRE_EST":"COLEGIO ESPAÑA (IED)"}},{"type":"Feature","geometry":{"type":"Point","coordinates":[-74.12388999985069,4.603399999749527]},"properties":{"NOMBRE_EST":"COLEGIO TECNICO BENJAMIN HERRERA (IED)"}},{"type":"Feature","geometry":{"type":"Point","coordinates":[-74.12708000006958,4.6019599996307585]},"properties":{"NOMBRE_EST":"COLEGIO TECNICO BENJAMIN HERRERA (IED)"}},{"type":"Feature","geometry":{"type":"Point","coordinates":[-74.12139000009307,4.601409999792777]},"properties":{"NOMBRE_EST":"COLEGIO TECNICO BENJAMIN HERRERA (IED)"}},{"type":"Feature","geometry":{"type":"Point","coordinates":[-74.10881000004079,4.632059999619868]},"properties":{"NOMBRE_EST":"COLEGIO JOSE JOAQUIN CASAS (IED)"}},{"type":"Feature","geometry":{"type":"Point","coordinates":[-74.10835999977898,4.632580000147377]},"properties":{"NOMBRE_EST":"COLEGIO JOSE JOAQUIN CASAS (IED)"}},{"type":"Feature","geometry":{"type":"Point","coordinates":[-74.1181899998284,4.633480000328881]},"properties":{"NOMBRE_EST":"COLEGIO ANTONIO JOSE DE SUCRE (IED)"}},{"type":"Feature","geometry":{"type":"Point","coordinates":[-74.11278000023438,4.597870000241792]},"properties":{"NOMBRE_EST":"COLEGIO MARCO ANTONIO CARREÑO SILVA (IED)"}},{"type":"Feature","geometry":{"type":"Point","coordinates":[-74.10926000030258,4.601789999791328]},"properties":{"NOMBRE_EST":"COLEGIO MARCO ANTONIO CARREÑO SILVA (IED)"}},{"type":"Feature","geometry":{"type":"Point","coordinates":[-74.10710000030359,4.602739999795568]},"properties":{"NOMBRE_EST":"COLEGIO MARCO ANTONIO CARREÑO SILVA (IED)"}},{"type":"Feature","geometry":{"type":"Point","coordinates":[-74.12582999974163,4.609540000063541]},"properties":{"NOMBRE_EST":"COLEGIO LUIS VARGAS TEJADA (IED)"}},{"type":"Feature","geometry":{"type":"Point","coordinates":[-74.12753000033139,4.608629999982032]},"properties":{"NOMBRE_EST":"COLEGIO LUIS VARGAS TEJADA (IED)"}},{"type":"Feature","geometry":{"type":"Point","coordinates":[-74.13423000043635,4.599620000276434]},"properties":{"NOMBRE_EST":"COLEGIO JULIO GARAVITO ARMERO (IED)"}},{"type":"Feature","geometry":{"type":"Point","coordinates":[-74.1306999995605,4.599750000342823]},"properties":{"NOMBRE_EST":"COLEGIO JULIO GARAVITO ARMERO (IED)"}},{"type":"Feature","geometry":{"type":"Point","coordinates":[-74.12948000026807,4.601999999797756]},"properties":{"NOMBRE_EST":"COLEGIO JULIO GARAVITO ARMERO (IED)"}},{"type":"Feature","geometry":{"type":"Point","coordinates":[-74.11327999982657,4.622989999847419]},"properties":{"NOMBRE_EST":"COLEGIO SORRENTO (IED)"}},{"type":"Feature","geometry":{"type":"Point","coordinates":[-74.11333000005529,4.619729999968519]},"properties":{"NOMBRE_EST":"COLEGIO SORRENTO (IED)"}},{"type":"Feature","geometry":{"type":"Point","coordinates":[-74.12271999988866,4.617730000265028]},"properties":{"NOMBRE_EST":"COLEGIO JOSE MANUEL RESTREPO (IED)"}},{"type":"Feature","geometry":{"type":"Point","coordinates":[-74.11916999981963,4.611460000298861]},"properties":{"NOMBRE_EST":"COLEGIO LUIS CARLOS GALAN SARMIENTO (IED)"}},{"type":"Feature","geometry":{"type":"Point","coordinates":[-74.1178299999783,4.612079999723532]},"properties":{"NOMBRE_EST":"COLEGIO LUIS CARLOS GALAN SARMIENTO (IED)"}},{"type":"Feature","geometry":{"type":"Point","coordinates":[-74.11845000011942,4.6222299999470815]},"properties":{"NOMBRE_EST":"COLEGIO SANTA TERESITA"}},{"type":"Feature","geometry":{"type":"Point","coordinates":[-74.11729000020313,4.606849999800025]},"properties":{"NOMBRE_EST":"LICEO PSICOPEDAGOGICO MI ABUELITA ROSSY"}},{"type":"Feature","geometry":{"type":"Point","coordinates":[-74.12956999978144,4.598759999584023]},"properties":{"NOMBRE_EST":"COLEGIO PARROQUIAL BILINGÜE SANTA ISABEL DE HUNGRIA"}},{"type":"Feature","geometry":{"type":"Point","coordinates":[-74.11078000006896,4.61041000018344]},"properties":{"NOMBRE_EST":"LICEO DEL CARIBE"}},{"type":"Feature","geometry":{"type":"Point","coordinates":[-74.11976999986925,4.621089999911494]},"properties":{"NOMBRE_EST":"COLEGIO BILINGÜE NUESTRA SEÑORA DEL ROSARIO"}},{"type":"Feature","geometry":{"type":"Point","coordinates":[-74.12076999995196,4.59725000007315]},"properties":{"NOMBRE_EST":"LICEO INFANTIL SANTA RITA"}},{"type":"Feature","geometry":{"type":"Point","coordinates":[-74.10531000020046,4.602560000108917]},"properties":{"NOMBRE_EST":"COLEGIO SAN LUCAS"}},{"type":"Feature","geometry":{"type":"Point","coordinates":[-74.11918999991111,4.6205200001015365]},"properties":{"NOMBRE_EST":"COLEGIO BILINGÜE JOSE ALLAMANO"}},{"type":"Feature","geometry":{"type":"Point","coordinates":[-74.11868000027317,4.614589999661512]},"properties":{"NOMBRE_EST":"INSTITUTO GALILEO"}},{"type":"Feature","geometry":{"type":"Point","coordinates":[-74.12707000002385,4.598320000098474]},"properties":{"NOMBRE_EST":"INSTITUTO CEMODEN"}},{"type":"Feature","geometry":{"type":"Point","coordinates":[-74.10923000016535,4.6097900001967895]},"properties":{"NOMBRE_EST":"COLEGIO LUIS CONCHA CORDOBA"}},{"type":"Feature","geometry":{"type":"Point","coordinates":[-74.1065100002997,4.602799999979489]},"properties":{"NOMBRE_EST":"COLEGIO PARROQUIAL CONFRATERNIDAD DE LA DOCTRINA CRISTIANA"}},{"type":"Feature","geometry":{"type":"Point","coordinates":[-74.12786000004427,4.607439999770629]},"properties":{"NOMBRE_EST":"COLEGIO PARROQUIAL MONSEÑOR EMILIO DE BRIGARD"}},{"type":"Feature","geometry":{"type":"Point","coordinates":[-74.11243999957743,4.620859999729153]},"properties":{"NOMBRE_EST":"LICEO AVENIDA LAS AMERICAS"}},{"type":"Feature","geometry":{"type":"Point","coordinates":[-74.11405999980124,4.604729999614842]},"properties":{"NOMBRE_EST":"COLEGIO KAPEIROT"}},{"type":"Feature","geometry":{"type":"Point","coordinates":[-74.12008000038897,4.600660000142968]},"properties":{"NOMBRE_EST":"LICEO SAN BERNARDO"}},{"type":"Feature","geometry":{"type":"Point","coordinates":[-74.10162000038935,4.60525999958199]},"properties":{"NOMBRE_EST":"COLEGIO MARIA SANTA SOLEDAD"}},{"type":"Feature","geometry":{"type":"Point","coordinates":[-74.11577000043675,4.606039999710782]},"properties":{"NOMBRE_EST":"COLEGIO SAN ALEJO"}},{"type":"Feature","geometry":{"type":"Point","coordinates":[-74.10697999975467,4.599050000256318]},"properties":{"NOMBRE_EST":"LICEO ROMULO GALLEGOS"}},{"type":"Feature","geometry":{"type":"Point","coordinates":[-74.11596000040754,4.606869999746353]},"properties":{"NOMBRE_EST":"LICEO BOGOTA"}},{"type":"Feature","geometry":{"type":"Point","coordinates":[-74.11436000027521,4.617540000075975]},"properties":{"NOMBRE_EST":"COLEGIO ROMEL VELASCO"}},{"type":"Feature","geometry":{"type":"Point","coordinates":[-74.1009900002025,4.607929999677531]},"properties":{"NOMBRE_EST":"INSTITUTO DE INTEGRACION CULTURAL IDIC"}},{"type":"Feature","geometry":{"type":"Point","coordinates":[-74.12846000009388,4.6019400004418225]},"properties":{"NOMBRE_EST":"GIMNASIO INFANTIL JULIO SIMON BENAVIDES"}},{"type":"Feature","geometry":{"type":"Point","coordinates":[-74.1257999996044,4.615670000307403]},"properties":{"NOMBRE_EST":"LICEO DE LOS ANGELES"}},{"type":"Feature","geometry":{"type":"Point","coordinates":[-74.12917999979412,4.606449999860197]},"properties":{"NOMBRE_EST":"COLEGIO FRAY JUAN DE LOS ANGELES"}},{"type":"Feature","geometry":{"type":"Point","coordinates":[-74.10785000014106,4.614389999660047]},"properties":{"NOMBRE_EST":"COLEGIO LOPE DE VEGA"}},{"type":"Feature","geometry":{"type":"Point","coordinates":[-74.11354000011758,4.617230000129519]},"properties":{"NOMBRE_EST":"LICEO DIANA PAOLA"}},{"type":"Feature","geometry":{"type":"Point","coordinates":[-74.11369999995112,4.6047399996178715]},"properties":{"NOMBRE_EST":"COLEGIO BILINGÜE CIUDAD MONTES"}},{"type":"Feature","geometry":{"type":"Point","coordinates":[-74.10895999982861,4.623530000247352]},"properties":{"NOMBRE_EST":"LICEO MODERNO ALELI"}},{"type":"Feature","geometry":{"type":"Point","coordinates":[-74.1173799997165,4.604809999635183]},"properties":{"NOMBRE_EST":"PREESCOLAR CHIQUIHOUSE"}},{"type":"Feature","geometry":{"type":"Point","coordinates":[-74.12149999969793,4.599370000150984]},"properties":{"NOMBRE_EST":"LICEO NUEVO CHILE"}},{"type":"Feature","geometry":{"type":"Point","coordinates":[-74.1287499996238,4.602660000437927]},"properties":{"NOMBRE_EST":"LICEO MANANTIAL DE VIDA ETERNA"}},{"type":"Feature","geometry":{"type":"Point","coordinates":[-74.11622999984598,4.624119999782677]},"properties":{"NOMBRE_EST":"COLEGIO NUESTRA SEÑORA DE LA SALETTE"}},{"type":"Feature","geometry":{"type":"Point","coordinates":[-74.11047999959499,4.605660000191121]},"properties":{"NOMBRE_EST":"JARDIN INFANTIL GARABATIEMOS"}},{"type":"Feature","geometry":{"type":"Point","coordinates":[-74.12527999992072,4.6006299999614555]},"properties":{"NOMBRE_EST":"LICEO COQUIBACOA"}},{"type":"Feature","geometry":{"type":"Point","coordinates":[-74.1171899997457,4.603509999980782]},"properties":{"NOMBRE_EST":"JARDIN INFANTIL UNIVERSO DEL SABER"}},{"type":"Feature","geometry":{"type":"Point","coordinates":[-74.10770000035322,4.599799999811003]},"properties":{"NOMBRE_EST":"GIMNASIO TALENTOS"}},{"type":"Feature","geometry":{"type":"Point","coordinates":[-74.12271999988866,4.615060000293808]},"properties":{"NOMBRE_EST":"GIMNASIO SAN VALERY"}},{"type":"Feature","geometry":{"type":"Point","coordinates":[-74.11711000027807,4.615089999866384]},"properties":{"NOMBRE_EST":"COLEGIO DEL SANTISIMO SACRAMENTO"}},{"type":"Feature","geometry":{"type":"Point","coordinates":[-74.11702999991213,4.610579999753109]},"properties":{"NOMBRE_EST":"COLEGIO DE INTEGRACION CULTURAL COLDIC"}},{"type":"Feature","geometry":{"type":"Point","coordinates":[-74.1042699999348,4.601180000402025]},"properties":{"NOMBRE_EST":"COLEGIO CRISTIANO SEMILLA DE VIDA"}},{"type":"Feature","geometry":{"type":"Point","coordinates":[-74.11029999966995,4.621110000352067]},"properties":{"NOMBRE_EST":"JARDIN INFANTIL LA FRESITA FELIZ"}},{"type":"Feature","geometry":{"type":"Point","coordinates":[-74.11125000042225,4.613009999636487]},"properties":{"NOMBRE_EST":"LICEO MATERNO INFANTIL PASITOS AL FUTURO"}},{"type":"Feature","geometry":{"type":"Point","coordinates":[-74.12050999966097,4.6250700003540866]},"properties":{"NOMBRE_EST":"INSTITUTO PEDAGOGICO PARA EL DESARROLLO INTEGRAL CREAR"}},{"type":"Feature","geometry":{"type":"Point","coordinates":[-74.11827000019434,4.6242100000328215]},"properties":{"NOMBRE_EST":"JARDIN INFANTIL EL MAGICO MUNDO DE LOS NIÑOS"}},{"type":"Feature","geometry":{"type":"Point","coordinates":[-74.11658999969609,4.617609999727396]},"properties":{"NOMBRE_EST":"JARDIN PSICOPEDAGOGICO PALOMITOS TRAVIESOS"}},{"type":"Feature","geometry":{"type":"Point","coordinates":[-74.13187999956826,4.600000000334906]},"properties":{"NOMBRE_EST":"LICEO INFANTIL TRENCITO DE PAPEL"}},{"type":"Feature","geometry":{"type":"Point","coordinates":[-74.13332999991276,4.597880000341167]},"properties":{"NOMBRE_EST":"LICEO INFANTIL SEMILLITAS DEL SABER"}},{"type":"Feature","geometry":{"type":"Point","coordinates":[-74.12697999961216,4.597149999879899]},"properties":{"NOMBRE_EST":"PREESCOLAR INTEGRAL"}},{"type":"Feature","geometry":{"type":"Point","coordinates":[-74.12002000011451,4.599909999703146]},"properties":{"NOMBRE_EST":"JARDIN INFANTIL SALACUNA RAYITOS DEL SOL"}},{"type":"Feature","geometry":{"type":"Point","coordinates":[-74.10828000031137,4.599720000123004]},"properties":{"NOMBRE_EST":"LICEO BILINGÜE ROMULO GALLEGOS"}},{"type":"Feature","geometry":{"type":"Point","coordinates":[-74.11637999963379,4.612630000262088]},"properties":{"NOMBRE_EST":"JARDIN INFANTIL PICARDIAS Y BURBUJAS"}},{"type":"Feature","geometry":{"type":"Point","coordinates":[-74.1146699998966,4.606849999800025]},"properties":{"NOMBRE_EST":"GIMNASIO PSICOPEDAGOGICO APRENDILANDIA"}},{"type":"Feature","geometry":{"type":"Point","coordinates":[-74.11582999981289,4.600189999840394]},"properties":{"NOMBRE_EST":"JARDIN INFANTIL AVENTURAS DE ANY"}},{"type":"Feature","geometry":{"type":"Point","coordinates":[-74.12589000001608,4.6114299996775285]},"properties":{"NOMBRE_EST":"JARDIN INFANTIL EL PORTAL DE ASTURIAS"}},{"type":"Feature","geometry":{"type":"Point","coordinates":[-74.12064000025562,4.599349999993899]},"properties":{"NOMBRE_EST":"LICEO PEDAGOGICO NUESTRA SEÑORA DE LA SABIDURIA"}},{"type":"Feature","geometry":{"type":"Point","coordinates":[-74.10182999955333,4.604999999647448]},"properties":{"NOMBRE_EST":"JARDIN INFANTIL PERSONITAS DEL MILENIO"}},{"type":"Feature","geometry":{"type":"Point","coordinates":[-74.12224000038795,4.614470000383749]},"properties":{"NOMBRE_EST":"LICEO ARCO IRIS"}},{"type":"Feature","geometry":{"type":"Point","coordinates":[-74.11988000037242,4.599030000090252]},"properties":{"NOMBRE_EST":"COLEGIO BLAISE PASCAL"}},{"type":"Feature","geometry":{"type":"Point","coordinates":[-74.11556000037446,4.616700000138428]},"properties":{"NOMBRE_EST":"JARDIN INFANTIL LOS CHAVITOS CREATIVOS"}},{"type":"Feature","geometry":{"type":"Point","coordinates":[-74.10815999976245,4.600100000128069]},"properties":{"NOMBRE_EST":"COLEGIO SAN ANGEL"}},{"type":"Feature","geometry":{"type":"Point","coordinates":[-74.11742999994523,4.597229999856526]},"properties":{"NOMBRE_EST":"PSICOPEDAGOGICO LUMINOSOS"}},{"type":"Feature","geometry":{"type":"Point","coordinates":[-74.12207999965605,4.6174099996816445]},"properties":{"NOMBRE_EST":"LICEO INFANTIL EL MUNDO DE LOS NIÑOS"}},{"type":"Feature","geometry":{"type":"Point","coordinates":[-74.12075999990621,4.61176000017472]},"properties":{"NOMBRE_EST":"LICEO Y PREESCOLAR NUESTRA SEÑORA DE LA LUZ"}},{"type":"Feature","geometry":{"type":"Point","coordinates":[-74.10830000040283,4.599730000196413]},"properties":{"NOMBRE_EST":"COLEGIO BOLIVARIANO"}},{"type":"Feature","geometry":{"type":"Point","coordinates":[-74.13004000013473,4.603079999875433]},"properties":{"NOMBRE_EST":"JARDIN INFANTIL ANGELES TRAVIESOS"}},{"type":"Feature","geometry":{"type":"Point","coordinates":[-74.11605999996667,4.617690000088056]},"properties":{"NOMBRE_EST":"GIMNASIO MODERNO ALEXANDER SUTHERLAND"}},{"type":"Feature","geometry":{"type":"Point","coordinates":[-74.12084000027215,4.599160000264322]},"properties":{"NOMBRE_EST":"INSTITUTO CAMARGO LEON"}},{"type":"Feature","geometry":{"type":"Point","coordinates":[-74.06926999973504,4.5982400002442345]},"properties":{"NOMBRE_EST":"COLEGIO INTEGRADA LA CANDELARIA (IED)"}},{"type":"Feature","geometry":{"type":"Point","coordinates":[-74.07119000043284,4.595610000146001]},"properties":{"NOMBRE_EST":"COLEGIO INTEGRADA LA CANDELARIA (IED)"}},{"type":"Feature","geometry":{"type":"Point","coordinates":[-74.06800000021391,4.601510000283347]},"properties":{"NOMBRE_EST":"COLEGIO INTEGRADA LA CANDELARIA (IED)"}},{"type":"Feature","geometry":{"type":"Point","coordinates":[-74.06999000033359,4.592920000078179]},"properties":{"NOMBRE_EST":"COLEGIO ESCUELA NACIONAL DE COMERCIO (IED)"}},{"type":"Feature","geometry":{"type":"Point","coordinates":[-74.07535999974465,4.591069999562281]},"properties":{"NOMBRE_EST":"INSTITUTO BOGOTA CENTRO"}},{"type":"Feature","geometry":{"type":"Point","coordinates":[-74.07003999966398,4.599750000342823]},"properties":{"NOMBRE_EST":"INSTITUCION EDUCATIVA HOGAR VERACRUZ"}},{"type":"Feature","geometry":{"type":"Point","coordinates":[-74.07159999961334,4.597159999989388]},"properties":{"NOMBRE_EST":"LICEO JULIO CESAR GARCIA"}},{"type":"Feature","geometry":{"type":"Point","coordinates":[-74.07358999973302,4.595160000368884]},"properties":{"NOMBRE_EST":"COLEGIO DEL SANTISIMO ROSARIO"}},{"type":"Feature","geometry":{"type":"Point","coordinates":[-74.07606000025172,4.596940000234247]},"properties":{"NOMBRE_EST":"FUNDACION COLEGIO MAYOR DE SAN BARTOLOME"}},{"type":"Feature","geometry":{"type":"Point","coordinates":[-74.07328000011161,4.597719999629451]},"properties":{"NOMBRE_EST":"INSTITUTO DE BACHILLERATO TECNICO COMERCIAL PITAGORAS"}},{"type":"Feature","geometry":{"type":"Point","coordinates":[-74.07291000021576,4.597989999634412]},"properties":{"NOMBRE_EST":"COLEGIO TIRSO DE MOLINA"}},{"type":"Feature","geometry":{"type":"Point","coordinates":[-74.07486000015247,4.594830000232393]},"properties":{"NOMBRE_EST":"COLEGIO SALESIANO DE LEON XIII"}},{"type":"Feature","geometry":{"type":"Point","coordinates":[-74.07454999963274,4.593229999874348]},"properties":{"NOMBRE_EST":"LICEO NUEVO MUNDO"}},{"type":"Feature","geometry":{"type":"Point","coordinates":[-74.07299999972913,4.5960699997638255]},"properties":{"NOMBRE_EST":"COLEGIO LOS ANGELES"}},{"type":"Feature","geometry":{"type":"Point","coordinates":[-74.07370000023617,4.59171000010445]},"properties":{"NOMBRE_EST":"CENTRO SAGRADO CORAZON"}},{"type":"Feature","geometry":{"type":"Point","coordinates":[-74.06767999964846,4.600439999677978]},"properties":{"NOMBRE_EST":"JARDIN INFANTIL TORRECITAS DEL SABER"}},{"type":"Feature","geometry":{"type":"Point","coordinates":[-74.07378999974956,4.593289999963755]},"properties":{"NOMBRE_EST":"CENTRO EDUCATIVO LIBERTAD"}},{"type":"Feature","geometry":{"type":"Point","coordinates":[-74.07935000002973,4.593339999885177]},"properties":{"NOMBRE_EST":"COLEGIO DE INTEGRACION ESCOLAR LUZ Y VIDA"}},{"type":"Feature","geometry":{"type":"Point","coordinates":[-74.07376999965807,4.5932100004403695]},"properties":{"NOMBRE_EST":"COLEGIO HUMANISTA ALEXANDRE PETION"}},{"type":"Feature","geometry":{"type":"Point","coordinates":[-74.12079000004344,4.579319999896419]},"properties":{"NOMBRE_EST":"COLEGIO RESTREPO MILLAN (IED)"}},{"type":"Feature","geometry":{"type":"Point","coordinates":[-74.12338000021273,4.583169999819495]},"properties":{"NOMBRE_EST":"COLEGIO RESTREPO MILLAN (IED)"}},{"type":"Feature","geometry":{"type":"Point","coordinates":[-74.12067000039283,4.581360000442037]},"properties":{"NOMBRE_EST":"COLEGIO RESTREPO MILLAN (IED)"}},{"type":"Feature","geometry":{"type":"Point","coordinates":[-74.10383999976449,4.5808099999461005]},"properties":{"NOMBRE_EST":"COLEGIO LICEO FEMENINO DE CUNDINAMARCA MERCEDES NARIÑO (IED)"}},{"type":"Feature","geometry":{"type":"Point","coordinates":[-74.11900999998606,4.579830000130591]},"properties":{"NOMBRE_EST":"COLEGIO BRAVO PAEZ (IED)"}},{"type":"Feature","geometry":{"type":"Point","coordinates":[-74.11729000020313,4.579700000017637]},"properties":{"NOMBRE_EST":"COLEGIO QUIROGA ALIANZA (IED)"}},{"type":"Feature","geometry":{"type":"Point","coordinates":[-74.12036999991888,4.584760000057173]},"properties":{"NOMBRE_EST":"COLEGIO RAFAEL DELGADO SALGUERO (IED)"}},{"type":"Feature","geometry":{"type":"Point","coordinates":[-74.12782999990704,4.585859999919352]},"properties":{"NOMBRE_EST":"COLEGIO RAFAEL DELGADO SALGUERO (IED)"}},{"type":"Feature","geometry":{"type":"Point","coordinates":[-74.11932999965319,4.584009999912801]},"properties":{"NOMBRE_EST":"COLEGIO RAFAEL DELGADO SALGUERO (IED)"}},{"type":"Feature","geometry":{"type":"Point","coordinates":[-74.12532000010368,4.578670000422864]},"properties":{"NOMBRE_EST":"COLEGIO REPUBLICA FEDERAL DE ALEMANIA (IED)"}},{"type":"Feature","geometry":{"type":"Point","coordinates":[-74.12603999980391,4.577640000240732]},"properties":{"NOMBRE_EST":"COLEGIO MANUEL DEL SOCORRO RODRIGUEZ (IED)"}},{"type":"Feature","geometry":{"type":"Point","coordinates":[-74.1280600000608,4.583049999725576]},"properties":{"NOMBRE_EST":"COLEGIO MANUEL DEL SOCORRO RODRIGUEZ (IED)"}},{"type":"Feature","geometry":{"type":"Point","coordinates":[-74.11627000002895,4.584300000312674]},"properties":{"NOMBRE_EST":"COLEGIO EL LIBERTADOR (IED)"}},{"type":"Feature","geometry":{"type":"Point","coordinates":[-74.11766000009898,4.588260000169279]},"properties":{"NOMBRE_EST":"COLEGIO EL LIBERTADOR (IED)"}},{"type":"Feature","geometry":{"type":"Point","coordinates":[-74.11319000031321,4.586550000156894]},"properties":{"NOMBRE_EST":"COLEGIO EL LIBERTADOR (IED)"}},{"type":"Feature","geometry":{"type":"Point","coordinates":[-74.11053999986946,4.579150000036035]},"properties":{"NOMBRE_EST":"COLEGIO CLEMENCIA HOLGUIN DE URDANETA (IED)"}},{"type":"Feature","geometry":{"type":"Point","coordinates":[-74.10925000025684,4.583720000290636]},"properties":{"NOMBRE_EST":"COLEGIO ANTONIO BARAYA (IED)"}},{"type":"Feature","geometry":{"type":"Point","coordinates":[-74.10926000030258,4.586059999875119]},"properties":{"NOMBRE_EST":"COLEGIO ANTONIO BARAYA (IED)"}},{"type":"Feature","geometry":{"type":"Point","coordinates":[-74.10818999989968,4.578989999603801]},"properties":{"NOMBRE_EST":"COLEGIO GUSTAVO RESTREPO (IED)"}},{"type":"Feature","geometry":{"type":"Point","coordinates":[-74.10258000028911,4.577310000068732]},"properties":{"NOMBRE_EST":"COLEGIO GUSTAVO RESTREPO (IED)"}},{"type":"Feature","geometry":{"type":"Point","coordinates":[-74.09694999968872,4.583799999982031]},"properties":{"NOMBRE_EST":"COLEGIO GUSTAVO RESTREPO (IED)"}},{"type":"Feature","geometry":{"type":"Point","coordinates":[-74.105290000109,4.584290000022962]},"properties":{"NOMBRE_EST":"COLEGIO REPUBLICA EE.UU. DE AMERICA (IED)"}},{"type":"Feature","geometry":{"type":"Point","coordinates":[-74.11474000021683,4.580680000011271]},"properties":{"NOMBRE_EST":"COLEGIO CLEMENCIA DE CAYCEDO (IED)"}},{"type":"Feature","geometry":{"type":"Point","coordinates":[-74.10450000008855,4.582040000226107]},"properties":{"NOMBRE_EST":"LICEO SUPERIOR DE BOGOTA"}},{"type":"Feature","geometry":{"type":"Point","coordinates":[-74.10896999987435,4.581669999883918]},"properties":{"NOMBRE_EST":"INSTITUTO SAN IGNACIO DE LOYOLA"}},{"type":"Feature","geometry":{"type":"Point","coordinates":[-74.1130000003424,4.584659999904315]},"properties":{"NOMBRE_EST":"INSTITUTO SAN PABLO APOSTOL"}},{"type":"Feature","geometry":{"type":"Point","coordinates":[-74.09803000013737,4.578020000358808]},"properties":{"NOMBRE_EST":"COLEGIO NUESTRA SEÑORA DE LA SABIDURIA"}},{"type":"Feature","geometry":{"type":"Point","coordinates":[-74.12099000005999,4.580160000035664]},"properties":{"NOMBRE_EST":"COLEGIO PARROQUIAL SAN LUIS GONZAGA"}},{"type":"Feature","geometry":{"type":"Point","coordinates":[-74.1134999999346,4.581730000049213]},"properties":{"NOMBRE_EST":"COLEGIO PARROQUIAL DE NUESTRA SEÑORA"}},{"type":"Feature","geometry":{"type":"Point","coordinates":[-74.12774000039367,4.58446999984396]},"properties":{"NOMBRE_EST":"COLEGIO PARROQUIAL DEL INMACULADO CORAZON DE MARIA"}},{"type":"Feature","geometry":{"type":"Point","coordinates":[-74.11306999976429,4.577410000353979]},"properties":{"NOMBRE_EST":"LICEO LORENZO GRACIAN"}},{"type":"Feature","geometry":{"type":"Point","coordinates":[-74.09900000008284,4.578350000203387]},"properties":{"NOMBRE_EST":"EXTERNADO DEL SUR PSICOPEDAGOGICO"}},{"type":"Feature","geometry":{"type":"Point","coordinates":[-74.11301000038814,4.576999999632865]},"properties":{"NOMBRE_EST":"COLEGIO SAN ESTEBAN"}},{"type":"Feature","geometry":{"type":"Point","coordinates":[-74.09708000028337,4.577640000240732]},"properties":{"NOMBRE_EST":"COLEGIO PSICOPEDAGOGICO AMERICANO DEL SUR"}},{"type":"Feature","geometry":{"type":"Point","coordinates":[-74.12615000030709,4.590960000096866]},"properties":{"NOMBRE_EST":"JARDIN INFANTIL CASTILLO DE SUEÑOS Y ALEGRIAS"}},{"type":"Feature","geometry":{"type":"Point","coordinates":[-74.1291999998856,4.578110000168699]},"properties":{"NOMBRE_EST":"COLEGIO CRISTIANO DE COLOMBIA"}},{"type":"Feature","geometry":{"type":"Point","coordinates":[-74.12628000000342,4.588159999611039]},"properties":{"NOMBRE_EST":"GIMNASIO NUEVA VILLA MAYOR"}},{"type":"Feature","geometry":{"type":"Point","coordinates":[-74.10025000041081,4.57923000023871]},"properties":{"NOMBRE_EST":"COLEGIO COLOMBO FLORIDA BILINGÜE"}},{"type":"Feature","geometry":{"type":"Point","coordinates":[-74.11989999956559,4.581309999681776]},"properties":{"NOMBRE_EST":"CENTRO EDUCATIVO DEL QUIROGA"}},{"type":"Feature","geometry":{"type":"Point","coordinates":[-74.11018000001933,4.5853299998553]},"properties":{"NOMBRE_EST":"JARDIN INFANTIL PEQUITAS"}},{"type":"Feature","geometry":{"type":"Point","coordinates":[-74.12565999986232,4.584860000196038]},"properties":{"NOMBRE_EST":"COLEGIO MAYOR DEL CLARET"}},{"type":"Feature","geometry":{"type":"Point","coordinates":[-74.11638999967954,4.58032000020619]},"properties":{"NOMBRE_EST":"COLEGIO MAYOR DEL QUIROGA"}},{"type":"Feature","geometry":{"type":"Point","coordinates":[-74.11938999992765,4.587670000433985]},"properties":{"NOMBRE_EST":"COLEGIO CRISTIANO DIOS ES AMOR SEDE MIS CORDERITOS"}},{"type":"Feature","geometry":{"type":"Point","coordinates":[-74.1077699997751,4.585749999651178]},"properties":{"NOMBRE_EST":"COLEGIO DOMINGO SAVIO BILINGUAL SCHOOL"}},{"type":"Feature","geometry":{"type":"Point","coordinates":[-74.11834999966197,4.586210000252926]},"properties":{"NOMBRE_EST":"FUNDACION COLEGIO PRINCIPIO DE SABIDURIA"}},{"type":"Feature","geometry":{"type":"Point","coordinates":[-74.1281799997114,4.583909999654984]},"properties":{"NOMBRE_EST":"CENTRO SOCIAL DE ESTUDIOS"}},{"type":"Feature","geometry":{"type":"Point","coordinates":[-74.12818999975714,4.589759999698674]},"properties":{"NOMBRE_EST":"GIMNASIO MODERNO CARLO ACUTIS"}},{"type":"Feature","geometry":{"type":"Point","coordinates":[-74.14424000041083,4.593190000110429]},"properties":{"NOMBRE_EST":"COLEGIO JALIL GIBRAN"}},{"type":"Feature","geometry":{"type":"Point","coordinates":[-74.09633999959335,4.5769099996833855]},"properties":{"NOMBRE_EST":"COLEGIO RENE DESCARTES"}},{"type":"Feature","geometry":{"type":"Point","coordinates":[-74.12935999971917,4.582010000157098]},"properties":{"NOMBRE_EST":"COLEGIO MARIO LUIS RODRIGUEZ COBOS"}},{"type":"Feature","geometry":{"type":"Point","coordinates":[-74.15133999965057,4.577570000244106]},"properties":{"NOMBRE_EST":"LICEO LA CORUÑA"}}]}